[
{"title": "Baden-W\u00fcrttemberg", "state": "active", "location": {"lat": 48.6296972, "lng": 9.1949534}, "contact": {"telegram": "https://t.me/joinchat/H4536Bdki0IJJQ5MFC3BZg", "whatsapp": "https://chat.whatsapp.com/EedvmOaXEOwHBdcFZqyjE7"}},
{"title": "Achern", "state": "active", "location": {"lat": 48.6300161, "lng": 8.0735581}, "contact": {"whatsapp": "https://chat.whatsapp.com/KfiqxUVoAy9BjHJJ4Pe652"}},
{"title": "Albstadt", "state": "active", "location": {"lat": 48.2342372, "lng": 9.0104093}, "contact": {"whatsapp": "https://chat.whatsapp.com/Btx4dYLak0C7bwZPpXxnRk"}},
{"title": "Alpirsbach", "state": "active", "location": {"lat": 48.3456021, "lng": 8.4033079}, "contact": {"whatsapp": "https://chat.whatsapp.com/D9c39MFGQ2YIP68onQAmT8"}},
{"title": "Backnang", "state": "active", "location": {"lat": 48.9466799, "lng": 9.4311225}, "contact": {"whatsapp": "https://chat.whatsapp.com/IBReBPEdG6d9yeRt7wldBq"}},
{"title": "Bad Mergentheim", "state": "active", "location": {"lat": 49.490532, "lng": 9.7730692}, "contact": {"whatsapp": "https://chat.whatsapp.com/Kn0gOTkLBiFCQgZq0k8FUn"}},
{"title": "Bad S\u00e4ckingen", "state": "active", "location": {"lat": 47.5525538, "lng": 7.9495387}, "contact": {"whatsapp": "https://chat.whatsapp.com/H9ACwkQXyay1AbhQ8XpJgR"}},
{"title": "Bad Waldsee", "state": "active", "location": {"lat": 47.9209556, "lng": 9.7542772}, "contact": {"whatsapp": "https://chat.whatsapp.com/DGMJ6kIqjWDI53qFU7ldib"}},
{"title": "Baden-Baden", "state": "active", "location": {"lat": 48.7580777, "lng": 8.2415239}, "contact": {"whatsapp": "https://chat.whatsapp.com/Di4lDm4e5jC57aZidy2wQV"}},
{"title": "Balingen", "state": "active", "location": {"lat": 48.2737512, "lng": 8.8557862}, "contact": {"whatsapp": "https://chat.whatsapp.com/B7PL1PrrMma2C8BF7I0TGd"}},
{"title": "Bietigheim-Bissingen", "state": "active", "location": {"lat": 48.9502631, "lng": 9.1383314}, "contact": {"whatsapp": "https://chat.whatsapp.com/Ewnv7eVDDmq27SNtLfwWwO"}},
{"title": "Biberach", "state": "active", "location": {"lat": 48.6057483, "lng": 8.2592431}, "contact": {"whatsapp": "https://chat.whatsapp.com/JLnd1KbXqL0I2UEVejexO6"}},
{"title": "Blaubeuren", "state": "active", "location": {"lat": 48.4121233, "lng": 9.7847091}, "contact": {"whatsapp": "https://chat.whatsapp.com/LiVdlt0XenPIQVprs8QPZu"}},
{"title": "B\u00f6blingen", "state": "active", "location": {"lat": 48.684969, "lng": 9.0113444}, "contact": {"whatsapp": "https://chat.whatsapp.com/KiRBr3KdKGhBwJxJZxuhiT"}},
{"title": "Bodensee", "state": "active", "location": {"lat": 47.64779345, "lng": 9.34713336982269}, "contact": {"whatsapp": "https://chat.whatsapp.com/KQNpl9bzbJnKw1IeDonkhG"}},
{"title": "Bruchsal", "state": "active", "location": {"lat": 49.124118, "lng": 8.5980244}, "contact": {"whatsapp": "https://chat.whatsapp.com/Ej1IC1pz9v5DHrXlBWzP6b"}},
{"title": "B\u00fchl", "state": "active", "location": {"lat": 48.7253, "lng": 7.0853}, "contact": {"whatsapp": "https://chat.whatsapp.com/JVigP9gX9XJDfxBzaDACQ0"}},
{"title": "Calw", "state": "active", "location": {"lat": 48.7153344, "lng": 8.7381796}, "contact": {"whatsapp": "https://chat.whatsapp.com/DKzp4wjZ3046ZFLHgyr8LU"}},
{"title": "Crailsheim", "state": "active", "location": {"lat": 49.1365626, "lng": 10.0720195}, "contact": {"telegram": "https://t.me/fff_CR", "whatsapp": "https://chat.whatsapp.com/FeGwARLT7h935v8mpaH9mv"}},
{"title": "Dreisamtal", "state": "active", "location": {"lat": 47.9461664, "lng": 7.97746217458912}, "contact": {"whatsapp": "https://chat.whatsapp.com/LQAeOJVgdVe8PL9i7Itwli"}},
{"title": "Esslingen", "state": "active", "location": {"lat": 48.7427584, "lng": 9.3071685}, "contact": {"telegram": "https://t.me/fridaysforfuture_esslingen", "whatsapp": "https://chat.whatsapp.com/Dsh8yFb18o27ZM6zGjWbZW"}},
{"title": "Ettenheim", "state": "active", "location": {"lat": 48.2545659, "lng": 7.8080276}, "contact": {"whatsapp": "https://chat.whatsapp.com/K5bqYWmSXORJrTwxlx4r8H"}},
{"title": "Filderstadt", "state": "active", "location": {"lat": 48.6616311, "lng": 9.2236805}, "contact": {"whatsapp": "https://chat.whatsapp.com/BbdEJd31ePfBWJtrRQAoEd"}},
{"title": "Freiburg", "state": "active", "location": {"lat": 47.9960901, "lng": 7.8494005}, "contact": {"telegram": "https://t.me/F4F_Freiburg", "whatsapp": "https://rebrand.ly/FFFfreiburg", "email": "freiburg@fridaysforfuture.de"}},
{"title": "Freudenstadt", "state": "active", "location": {"lat": 48.4637727, "lng": 8.4111727}, "contact": {"whatsapp": "https://chat.whatsapp.com/C7eiTpk1501F240ClTwu6q"}},
{"title": "Friedrichshafen", "state": "active", "location": {"lat": 47.6505715, "lng": 9.4797531}, "contact": {"whatsapp": "https://chat.whatsapp.com/D7zLV4heWTS03pMrNQb3mu"}},
{"title": "Friesenheim", "state": "active", "location": {"lat": 48.3089525, "lng": 7.6722451}, "contact": {"whatsapp": "https://chat.whatsapp.com/HJyETyLIHqDHm7MN6RgB7F"}},
{"title": "Geislingen", "state": "active", "location": {"lat": 48.9424223, "lng": 10.422228}, "contact": {"whatsapp": "https://chat.whatsapp.com/HES4WzwjSsp87UgGnysZu5"}},
{"title": "Giengen an der Brenz", "state": "active", "location": {"lat": 48.624521, "lng": 10.243032}, "contact": {"whatsapp": "https://chat.whatsapp.com/FqfMkf1mfBX0mhUIUIeVp4"}},
{"title": "G\u00f6ppingen", "state": "active", "location": {"lat": 48.7031377, "lng": 9.6541116}, "contact": {"telegram": "https://t.me/joinchat/KhHBfFljbgWsh3wTIwLmWw", "whatsapp": "https://chat.whatsapp.com/Bo83pTxW1bz3284SJovYeV"}},
{"title": "Heidelberg", "state": "active", "location": {"lat": 49.4093582, "lng": 8.694724}, "contact": {"telegram studierende": "https://t.me/joinchat/AAAAAFEg8xQ-Bc3I9GXRaQ", "whatsapp": "https://chat.whatsapp.com/HmL7M5IJxa04KQQpNHWImc", "whatsapp studierende": "https://chat.whatsapp.com/Dwb4ThfibYlIfwxpaklmrM"}},
{"title": "Heidenheim", "state": "active", "location": {"lat": 48.6767637, "lng": 10.152923}, "contact": {"whatsapp": "https://chat.whatsapp.com/FJSRUNn3In4HU1wqz4VbWT", "email": "heidenheim@fridaysforfuture.de"}},
{"title": "Heilbronn", "state": "active", "location": {"lat": 49.142291, "lng": 9.218655}, "contact": {"whatsapp": "https://chat.whatsapp.com/HQ1JS9LLvTFHIKlQZ4SVPe"}},
{"title": "Herrenberg", "state": "active", "location": {"lat": 48.595557, "lng": 8.8674715}, "contact": {"whatsapp": "https://chat.whatsapp.com/BOGcbXMnQTFGwvYl8CtfU7"}},
{"title": "Isny", "state": "active", "location": {"lat": 47.69168495, "lng": 10.0336692073738}, "contact": {"whatsapp": "https://chat.whatsapp.com/FkvStAsQd2uFb0wUatjDaV"}},
{"title": "Karlsruhe", "state": "active", "location": {"lat": 49.0068705, "lng": 8.4034195}, "contact": {"telegram": "https://t.me/joinchat/JaG85EWBSPFv34yd2B5MUg", "whatsapp": "https://chat.whatsapp.com/FommU7MGvDOIGRDN51MQsA"}},
{"title": "Konstanz", "state": "active", "location": {"lat": 47.659216, "lng": 9.1750718}, "contact": {"telegram": "https://t.me/fridaysforfuturekn", "whatsapp": "https://chat.whatsapp.com/J7jHlXgfYMwJFjCHaB57jY"}},
{"title": "Lahr", "state": "active", "location": {"lat": 48.33460175, "lng": 7.88320649377849}, "contact": {"whatsapp": "https://chat.whatsapp.com/KAL9au8zeUA6je4kUZMS6u"}},
{"title": "Laupheim", "state": "active", "location": {"lat": 48.2305342, "lng": 9.8771587}, "contact": {"whatsapp": "https://chat.whatsapp.com/Huge43wFBx75CbPI6smCHs"}},
{"title": "Leutkirch im Allg\u00e4u", "state": "active", "location": {"lat": 47.81012285, "lng": 10.0355183816454}, "contact": {"whatsapp": "https://chat.whatsapp.com/JG0IocrhQSSHrm3glxOu8P", "email": "leutkirch@fridaysforfuture.de"}},
{"title": "L\u00f6rrach", "state": "active", "location": {"lat": 47.6120896, "lng": 7.6607218}, "contact": {"whatsapp": "https://chat.whatsapp.com/BQzn1aY88FyKJOOam8Lsj9"}},
{"title": "Ludwigsburg", "state": "active", "location": {"lat": 48.8953937, "lng": 9.1895147}, "contact": {"whatsapp": "https://chat.whatsapp.com/BkDmNuOoaYzIXQfizXzHSZ"}},
{"title": "Mannheim", "state": "active", "location": {"lat": 49.489591, "lng": 8.467236}, "contact": {"whatsapp": "https://chat.whatsapp.com/G2smaZUHSGV8cDMxDF76Sj"}},
{"title": "Me\u00dfkirch", "state": "active", "location": {"lat": 47.992382, "lng": 9.1142616}, "contact": {"whatsapp": "https://chat.whatsapp.com/IFwJmb13hc3IlpNUezWunc"}},
{"title": "M\u00f6ckm\u00fchl", "state": "active", "location": {"lat": 49.3233013, "lng": 9.3611411}, "contact": {"whatsapp": "https://chat.whatsapp.com/L86lzdpRovvA50O59Q4sO3"}},
{"title": "Nagold", "state": "active", "location": {"lat": 48.5512399, "lng": 8.7234942}, "contact": {"whatsapp": "https://chat.whatsapp.com/Jc20S90gxBgIWONlPpGhCK"}},
{"title": "Neuenburg", "state": "active", "location": {"lat": 46.9895828, "lng": 6.9292641}, "contact": {"whatsapp": "https://chat.whatsapp.com/Cevb9tMdiL14UCzqUfQSrI"}},
{"title": "\u00d6hringen", "state": "active", "location": {"lat": 49.2005034, "lng": 9.5024397}, "contact": {"whatsapp": "https://chat.whatsapp.com/EHF3rYfp2YQIal1tA65Xbe"}},
{"title": "Offenburg", "state": "active", "location": {"lat": 48.4716556, "lng": 7.944378}, "contact": {"whatsapp": "https://chat.whatsapp.com/invite/BBWB4qc73LKGWlgnssIne6", "info": "https://pad.fridaysforfuture.de/p/r.362ab68c1053485140e9a9aae5a1dd1b", "email": "offenburg@fridaysforfuture.de"}},
{"title": "Pforzheim", "state": "active", "location": {"lat": 48.8908846, "lng": 8.7029532}, "contact": {"whatsapp": "https://chat.whatsapp.com/IFQKssQ0mav7ryC1Iwj04o"}},
{"title": "Philippsburg", "state": "active", "location": {"lat": 48.9832553, "lng": 7.5675924}, "contact": {"whatsapp": "https://chat.whatsapp.com/JtdVAeDDfn23jTTVpMzm0m"}},
{"title": "Radolfzell", "state": "active", "location": {"lat": 47.7372802, "lng": 8.9702755}, "contact": {"whatsapp": "https://chat.whatsapp.com/IfukrtUn3iLGC6tJzXoN4Q"}},
{"title": "Rastatt", "state": "active", "location": {"lat": 48.8574209, "lng": 8.2088088}, "contact": {"whatsapp": "https://chat.whatsapp.com/Gw37CwaF4mRJS6C2u186cL"}},
{"title": "Ravensburg", "state": "active", "location": {"lat": 47.7811014, "lng": 9.612468}, "contact": {"whatsapp": "https://chat.whatsapp.com/Hz8Ctxei4VaLkjlMqBuaTh", "email": "ravensburg@fridaysforfuture.de"}},
{"title": "Reutlingen", "state": "active", "location": {"lat": 48.4919508, "lng": 9.2114144}, "contact": {"whatsapp": "https://chat.whatsapp.com/E9CrnlY08NGEqAHkIZnQB2"}},
{"title": "Riedlingen", "state": "active", "location": {"lat": 48.1534412, "lng": 9.4748796}, "contact": {"whatsapp": "https://chat.whatsapp.com/LNkT7kMFBfy6LuaQbb0pCh"}},
{"title": "Rottenburg am Neckar", "state": "active", "location": {"lat": 48.47696, "lng": 8.9336788}, "contact": {"whatsapp": "https://chat.whatsapp.com/IfeSMVKRmnG3MI5kxbg4WZ"}},
{"title": "Rottweil", "state": "active", "location": {"lat": 48.165531, "lng": 8.6251283}, "contact": {"whatsapp": "https://chat.whatsapp.com/EEIkFOQlY8B7CYtlNty19b"}},
{"title": "Trossingen", "state": "active", "location": {"lat": 48.07506, "lng": 8.6362987}, "contact": {"whatsapp": "https://chat.whatsapp.com/KF2IlBWCfxhFg0rerIbsrV"}},
{"title": "Schriesheim", "state": "active", "location": {"lat": 49.4751705, "lng": 8.6611149}, "contact": {"whatsapp": "https://chat.whatsapp.com/HQuliiNyzPbGEQQKSOskwp"}},
{"title": "Schw\u00e4bisch Hall", "state": "active", "location": {"lat": 49.1123963, "lng": 9.7369047}, "contact": {"whatsapp": "https://chat.whatsapp.com/CMY05cLryPC7mmZcHwAsQ3"}},
{"title": "Schwetzingen", "state": "active", "location": {"lat": 49.3832919, "lng": 8.5735135}, "contact": {"whatsapp": "https://chat.whatsapp.com/IcTu87pizVLDaQWbY2mXl5"}},
{"title": "Sigmaringen", "state": "active", "location": {"lat": 48.0855844, "lng": 9.2178879}, "contact": {"whatsapp": "https://chat.whatsapp.com/CfPW6dkrcorJI7WAuQLKUt"}},
{"title": "Singen", "state": "active", "location": {"lat": 47.7617515, "lng": 8.8348709}, "contact": {"whatsapp": "https://chat.whatsapp.com/BQQUaDYWSfBEKM4YYEA6Q0", "email": "singen@fridaysforfuture.de"}},
{"title": "Sinsheim", "state": "active", "location": {"lat": 49.2553, "lng": 8.87722}, "contact": {"whatsapp": "https://chat.whatsapp.com/KGYQTPaAZvS8jhNqHLRq88"}},
{"title": "Spaichingen", "state": "active", "location": {"lat": 48.0730713, "lng": 8.7391941}, "contact": {"whatsapp": "https://chat.whatsapp.com/Fj4aYm6JX9XHcxA1Q269n3"}},
{"title": "Stuttgart", "state": "active", "location": {"lat": 48.7784485, "lng": 9.1800132}, "contact": {"telegram": "https://t.me/fffstgt", "whatsapp": "https://chat.whatsapp.com/IeL471XvaTDAiTMKtYI3pZ", "email": "stuttgart@fridaysforfuture.de"}},
{"title": "St. Georgen", "state": "active", "location": {"lat": 47.3665498, "lng": 24.6729439739}, "contact": {"whatsapp": "https://chat.whatsapp.com/GtFjh37aYzH8UlqvO6Br0C"}},
{"title": "T\u00fcbingen", "state": "active", "location": {"lat": 48.5236164, "lng": 9.0535531}, "contact": {"whatsapp": "https://chat.whatsapp.com/DXkRhvUnOpx8viGvCiLYWx"}},
{"title": "Tuttlingen", "state": "active", "location": {"lat": 47.9844315, "lng": 8.8186606}, "contact": {"whatsapp": "https://chat.whatsapp.com/FyiLlgZULox0FyQygTgSxD"}},
{"title": "\u00dcberlingen", "state": "active", "location": {"lat": 47.7667246, "lng": 9.1666488}, "contact": {"whatsapp": "https://chat.whatsapp.com/L9AS4bUxayF9KiiXiDZw5r", "email": "orga@klima-streik.de"}},
{"title": "Ulm", "state": "active", "location": {"lat": 48.3974003, "lng": 9.9934336}, "contact": {"whatsapp": "https://chat.whatsapp.com/EnNapLUMaFHBqhCNLvNwfY", "email": "ulm@fridaysforfuture.de"}},
{"title": "Vaihingen", "state": "active", "location": {"lat": 48.7344291, "lng": 9.08864817239095}, "contact": {"whatsapp": "https://chat.whatsapp.com/BrjDb42hBUZExYWEfsJZ97"}},
{"title": "Villingen-Schwenningen", "state": "active", "location": {"lat": 48.0632739, "lng": 8.494588}, "contact": {"whatsapp": "https://chat.whatsapp.com/EivZt14YYjg6Y8ogigw8sx", "email": "villingen-Schwenningen@fridaysforfuture.de "}},
{"title": "Wagh\u00e4usel", "state": "active", "location": {"lat": 49.2308301, "lng": 8.5337304}, "contact": {"telegram": "https://t.me/joinchat/JQDUbRG6mWntJmszrFyx_g"}},
{"title": "Wangen", "state": "active", "location": {"lat": 48.6182515, "lng": 7.4672164}, "contact": {"whatsapp": "https://chat.whatsapp.com/GdINUcMxcxuGKH11FSOw8I", "email": " fridaysforfuture-wangen@riseup.net"}},
{"title": "Weinheim", "state": "active", "location": {"lat": 49.5462349, "lng": 8.6717458}, "contact": {"whatsapp": "https://chat.whatsapp.com/EZ5xBdYaIRZLHfJhvEe3LD"}},
{"title": "Wertheim", "state": "active", "location": {"lat": 49.7571696, "lng": 9.5134313}, "contact": {"whatsapp": "https://chat.whatsapp.com/Gazoe1AzqqD7dMgY7VreAU"}},
{"title": "Bayern", "state": "active", "location": {"lat": 48.9467562, "lng": 11.4038717}, "contact": {"whatsapp": "https://chat.whatsapp.com/EBMwc8m46POIQJRaUrCfSR"}},
{"title": "Alt\u00f6tting", "state": "active", "location": {"lat": 48.2268085, "lng": 12.6757914}, "contact": {"whatsapp": "https://chat.whatsapp.com/DqDWepjseaVE432PhuU4cB"}},
{"title": "Amberg", "state": "active", "location": {"lat": 49.4454211, "lng": 11.858728}, "contact": {"whatsapp": "https://chat.whatsapp.com/FGe6ZuoXyc73aiG3hmiDSp"}},
{"title": "Ansbach", "state": "active", "location": {"lat": 49.3028611, "lng": 10.5722288}, "contact": {"whatsapp": "https://chat.whatsapp.com/Ihtq8SB6wex4HdYDjfqvdN"}},
{"title": "Aschaffenburg", "state": "active", "location": {"lat": 49.9706701, "lng": 9.13848573082478}, "contact": {"whatsapp": "https://chat.whatsapp.com/HGx8QJaZv1WGRRbjJRDvJp", "email": "fridaysforfuture.aschaffenburg@web.de"}},
{"title": "Augsburg", "state": "active", "location": {"lat": 48.3668041, "lng": 10.8986971}, "contact": {"whatsapp": "https://chat.whatsapp.com/DGqOFGI9gXBGVZbgmopmSy"}},
{"title": "Bad Feilnbach", "state": "active", "location": {"lat": 47.7745858, "lng": 12.0070798}, "contact": {"whatsapp": "https://chat.whatsapp.com/LKT9E8b7tSi9gMGobtjlWu"}},
{"title": "Bad Kissingen", "state": "active", "location": {"lat": 50.1983954, "lng": 10.0750993}, "contact": {"whatsapp": "https://chat.whatsapp.com/IOz3LW44Isp0Nb3C3gTWim"}},
{"title": "Bad K\u00f6nigshofen", "state": "active", "location": {"lat": 50.3019521, "lng": 10.4693549}, "contact": {"whatsapp": "https://chat.whatsapp.com/ImsG9YWSbwx8pXZbOB4oXG"}},
{"title": "Bad Neustadt an der Saale", "state": "active", "location": {"lat": 50.32329335, "lng": 10.2008655363574}, "contact": {"whatsapp": "https://chat.whatsapp.com/invite/KG6V6LUoHMTL2K3ERkTBj8"}},
{"title": "Bad Reichenhall", "state": "active", "location": {"lat": 47.7222676, "lng": 12.8760923}, "contact": {"telegram": "https://t.me/fffbadreichenhall", "whatsapp": "https://chat.whatsapp.com/HyHXQQkpskZ0LaUwIP351f"}},
{"title": "Bad T\u00f6lz", "state": "active", "location": {"lat": 47.7610641, "lng": 11.5582933}, "contact": {"whatsapp": "https://chat.whatsapp.com/BkO9PuefBvgHbARhxDDBt7"}},
{"title": "Bamberg", "state": "active", "location": {"lat": 49.8926723, "lng": 10.8876149}, "contact": {"whatsapp": "https://chat.whatsapp.com/HkyGP25tzoC6fCDPim9T92"}},
{"title": "Bayreuth", "state": "active", "location": {"lat": 49.9427202, "lng": 11.5763079}, "contact": {"whatsapp": "https://chat.whatsapp.com/BlqZWB96qRP615zr6wXhlb", "email": "bayreuth@fridaysforfuture.de"}},
{"title": "Berchtesgaden", "state": "active", "location": {"lat": 47.63108, "lng": 13.0021634}, "contact": {"whatsapp": "https://chat.whatsapp.com/CTylkoi3CKKGrOA8fzsIBf", "email": "fridaysforfuture.bgd@gmail.com"}},
{"title": "Bodensee", "state": "active", "location": {"lat": 47.64779345, "lng": 9.34713336982269}, "contact": {"whatsapp": "https://chat.whatsapp.com/KQNpl9bzbJnKw1IeDonkhG"}},
{"title": "Bogen", "state": "active", "location": {"lat": 48.9054199, "lng": 12.6920742}, "contact": {"whatsapp": "https://chat.whatsapp.com/IWwyT6AoQQ86gCCyRbpbhV"}},
{"title": "Coburg", "state": "active", "location": {"lat": 50.258112, "lng": 10.964463}, "contact": {"whatsapp": "https://chat.whatsapp.com/I8q2sZiOV8B2i0fvBjEplj"}},
{"title": "Dachau", "state": "active", "location": {"lat": 48.2592477, "lng": 11.4354419}, "contact": {" whatsapp": "https://chat.whatsapp.com/GyXJvaXvBWY9MQq9rhdunf"}},
{"title": "Deggendorf", "state": "active", "location": {"lat": 48.8333535, "lng": 12.96205}, "contact": {"whatsapp": "https://chat.whatsapp.com/GcJcOpDmFYkIYD2Csp9epo"}},
{"title": "Dingolfing", "state": "active", "location": {"lat": 48.6300801, "lng": 12.4977434}, "contact": {"whatsapp": "https://chat.whatsapp.com/G0yCmykyyay9jRqhApWkcw"}},
{"title": "Dinkelsb\u00fchl", "state": "active", "location": {"lat": 49.0692306, "lng": 10.3223475}, "contact": {"whatsapp": "https://chat.whatsapp.com/EUIYAnwqA71Als3Qb8jYYu"}},
{"title": "Donauw\u00f6rth", "state": "active", "location": {"lat": 48.7180364, "lng": 10.7807299}, "contact": {"whatsapp": "https://chat.whatsapp.com/invite/KjhTLMfADln0XFOVmSpUBQ"}},
{"title": "Eggenfelden", "state": "active", "location": {"lat": 48.4031909, "lng": 12.7626208}, "contact": {"whatsapp": "https://chat.whatsapp.com/Fyp5cnC2S81Km50v2qP2Hy"}},
{"title": "Eichendorf", "state": "active", "location": {"lat": 48.633629, "lng": 12.8563755}, "contact": {"whatsapp": "https://chat.whatsapp.com/IWrkoI9qGvNCHvXWAE9Mpi"}},
{"title": "Eichst\u00e4tt", "state": "active", "location": {"lat": 48.8933417, "lng": 11.1838965}, "contact": {"whatsapp": "https://chat.whatsapp.com/JvmFlu1hyVZHBZ4U3Ph88j", "whatsapp studierende": "https://chat.whatsapp.com/invite/Gep9UlRnhUC8ZOtvOpv0LU"}},
{"title": "Erding", "state": "active", "location": {"lat": 48.3064441, "lng": 11.9076579}, "contact": {"whatsapp": "https://chat.whatsapp.com/GuHPBxUi6xg6sFAXZtmiwU"}},
{"title": "Erlangen/Erlangen H\u00f6chstadt", "state": "active", "location": {"lat": 49.64042, "lng": 10.930096}, "contact": {"whatsapp": "https://chat.whatsapp.com/BWGCodBwxMKL3UCvGRzXRC", "email": "erlangen@fridaysforfuture.de"}},
{"title": "Feuchtwangen", "state": "active", "location": {"lat": 49.1678603, "lng": 10.3313268}, "contact": {"whatsapp": "https://chat.whatsapp.com/KJNH9J1l8l3HcnN7K23UoE"}},
{"title": "Forchheim", "state": "active", "location": {"lat": 49.7187128, "lng": 11.059642}, "contact": {"whatsapp": "https://chat.whatsapp.com/K3dLX7bKIfg0Z6t8AKllR5"}},
{"title": "(Region) Franken", "state": "active", "location": {"lat": 49.14536255, "lng": 9.21055602824675}, "contact": {"whatsapp": "https://chat.whatsapp.com/E0gGieO0kwN5DRDkVdPori"}},
{"title": "Freising", "state": "active", "location": {"lat": 48.4008273, "lng": 11.7439565}, "contact": {"whatsapp": "https://chat.whatsapp.com/F06kqBx3phR9jpX4vqhZyo"}},
{"title": "F\u00fcrstenfeldbruck", "state": "active", "location": {"lat": 48.1813797, "lng": 11.2382125}, "contact": {"whatsapp": "https://chat.whatsapp.com/DRdUOpATS8HDcsQ4ecMI9M"}},
{"title": "F\u00fcrth", "state": "active", "location": {"lat": 49.477263, "lng": 10.989616}, "contact": {"whatsapp": "https://chat.whatsapp.com/GGyykV68e3OFIR3VVJnv9l"}},
{"title": "F\u00fcssen", "state": "active", "location": {"lat": 47.5709212, "lng": 10.6977089}, "contact": {"whatsapp": "https://chat.whatsapp.com/IoxbZ69nu45BydVwJchXv5"}},
{"title": "Gailbach", "state": "active", "location": {"lat": 49.9409334, "lng": 9.2144768}, "contact": {"whatsapp": "https://chat.whatsapp.com/CMECdt2Dydi0hfRoCFOpJV"}},
{"title": "Garching", "state": "active", "location": {"lat": 48.2513878, "lng": 11.6509662}, "contact": {"telegram studierende": "https://t.me/joinchat/H9ooYxP69FMZLizcDI9RNA"}},
{"title": "Grafing", "state": "active", "location": {"lat": 48.03487655, "lng": 11.9725739766967}, "contact": {"telegram": "https://t.me/joinchat/DGH36lWWFuirc9a2AQMXgw"}},
{"title": "Gerolzhofen", "state": "active", "location": {"lat": 49.9003568, "lng": 10.3487749}, "contact": {"whatsapp": "https://chat.whatsapp.com/BTUXuJO5uVs1IayNH7IC8g"}},
{"title": "G\u00fcnzburg", "state": "active", "location": {"lat": 48.4539028, "lng": 10.2785509}, "contact": {"whatsapp": "https://chat.whatsapp.com/invite/HWzytuEFtnrCssSEAisAFY"}},
{"title": "Ha\u00dffurt", "state": "active", "location": {"lat": 50.0318698, "lng": 10.5065562}, "contact": {"telegram": "https://t.me/fridaysforfutureHassfurt"}},
{"title": "Herzogenaurach", "state": "active", "location": {"lat": 49.5710376, "lng": 10.8815262}, "contact": {"whatsapp": "https://chat.whatsapp.com/F2Gii4EStV5E6nzrKfdQGJ", "email": "herzogenaurach@fridaysforfuture.de"}},
{"title": "Hollfeld", "state": "active", "location": {"lat": 49.9389862, "lng": 11.2918916}, "contact": {"whatsapp": "https://chat.whatsapp.com/EAulLWPjJqKB0b9tTfGz8g"}},
{"title": "Holzkirchen", "state": "active", "location": {"lat": 47.8831496, "lng": 11.7004553}, "contact": {"whatsapp": "https://chat.whatsapp.com/KkVfGbfMorq3vUQm4VAe82"}},
{"title": "Ingolstadt", "state": "active", "location": {"lat": 48.7630165, "lng": 11.4250395}, "contact": {"whatsapp": "https://chat.whatsapp.com/DayxHN4H1MS6ZVwiCRrJKO", "email": "Ingolstadt@fridaysforfuture.de"}},
{"title": "Kaufbeuren", "state": "active", "location": {"lat": 47.8803788, "lng": 10.622246}, "contact": {"whatsapp": "https://chat.whatsapp.com/EEXNMmzFUUw0DNh5yHasRk"}},
{"title": "Kempten", "state": "active", "location": {"lat": 49.9675354, "lng": 7.9367577}, "contact": {"whatsapp": "https://chat.whatsapp.com/HFGJhGgVVyDHmHRSGmZh0X", "email": "kempten@fridaysforfuture.de", "h": "https://chat.whatsapp.com/G2ONN01D59I38gy6WsVONy "}},
{"title": "Kronach", "state": "active", "location": {"lat": 50.2397846, "lng": 11.3277669}, "contact": {"whatsapp": "https://chat.whatsapp.com/G2ONN01D59I38gy6WsVONy "}},
{"title": "Krumbach", "state": "active", "location": {"lat": 48.2433959, "lng": 10.3634009}, "contact": {"whatsapp": "https://chat.whatsapp.com/G7yYLUcBp7j4WZwBShatEB"}},
{"title": "Kulmbach", "state": "active", "location": {"lat": 50.1008448, "lng": 11.4479149}, "contact": {"whatsapp": "https://chat.whatsapp.com/LNfqDHoN43G2ew3136bEvm"}},
{"title": "Landau (Isar)", "state": "active", "location": {"lat": 48.6830315, "lng": 12.6955858}, "contact": {"whatsapp": "https://chat.whatsapp.com/E4taKIq9YWbJaEpmgUdnPj"}},
{"title": "Landsberg", "state": "active", "location": {"lat": 48.0514973, "lng": 10.8737728}, "contact": {"whatsapp": "https://chat.whatsapp.com/KiwTfZs7CS0H3fXXGEwC8Y", "email": "landsberg@fridaysforfuture.de"}},
{"title": "Landshut", "state": "active", "location": {"lat": 48.536217, "lng": 12.1516551}, "contact": {"whatsapp": "https://chat.whatsapp.com/Jf115KT9E9A5rAipOMSEK4", "email": "landshut@fridaysforfuture.de"}},
{"title": "Lindau", "state": "active", "location": {"lat": 47.550753, "lng": 9.6926624}, "contact": {"whatsapp": "https://chat.whatsapp.com/L0tvvfKivhpAlyk3jFTw3H"}},
{"title": "Lindenberg", "state": "active", "location": {"lat": 53.7651998, "lng": 13.0225848}, "contact": {"whatsapp": "https://chat.whatsapp.com/HxgIQtfrt14DfurQgPHaSV"}},
{"title": "Marktredwitz", "state": "active", "location": {"lat": 50.0009915, "lng": 12.0856433}, "contact": {"whatsapp": "https://chat.whatsapp.com/Dgd3ZZOGnWQBnkCuWJFAWX"}},
{"title": "Marktoberdorf", "state": "active", "location": {"lat": 47.7750654, "lng": 10.6170847}, "contact": {"whatsapp": "https://chat.whatsapp.com/LSigmVA77ws1mo4QgftVFZ"}},
{"title": "Marquartstein", "state": "active", "location": {"lat": 47.7608226, "lng": 12.4604809}, "contact": {"whatsapp": "https://chat.whatsapp.com/LdDRsWTBaGl1V8mBUWpWnv"}},
{"title": "Memmingen", "state": "active", "location": {"lat": 47.9867696, "lng": 10.181319}, "contact": {"whatsapp": "https://chat.whatsapp.com/JJ8Ev8CY9fHF0XGWcvw8ez"}},
{"title": "Miltenberg", "state": "active", "location": {"lat": 49.7017584, "lng": 9.2559718}, "contact": {"whatsapp": "https://chat.whatsapp.com/GGiuTbhxTZf5Dzw6IJYslD"}},
{"title": "M\u00fchldorf", "state": "active", "location": {"lat": 48.2405007, "lng": 12.5250991}, "contact": {"whatsapp": "https://chat.whatsapp.com/JDHsueviiO59wf7CntBLKL"}},
{"title": "M\u00fcnchen", "state": "active", "location": {"lat": 48.1371079, "lng": 11.5753822}, "contact": {"telegram": "https://t.me/joinchat/DEvHuhNGvo9AdcAudNkVGg", "whatsapp": "https://chat.whatsapp.com/E7pHj2J1JAxJweqVllOUyh", "telegram studierende": "https://t.me/joinchat/H9ooYxfAX9IVzP4EdY2WtQ", "email": "muenchen@fridaysforfuture.de"}},
{"title": "M\u00fcnnerstadt", "state": "active", "location": {"lat": 50.2490439, "lng": 10.1942632}, "contact": {"whatsapp": "https://chat.whatsapp.com/CDMUZIAAlFbKYBI9hblccl"}},
{"title": "Murnau", "state": "active", "location": {"lat": 47.6778816, "lng": 11.2011903}, "contact": {"whatsapp": "https://chat.whatsapp.com/HriFwSP3EYICqNcNG85BqA"}},
{"title": "Neuburg an der Donau", "state": "active", "location": {"lat": 48.7371951, "lng": 11.1795268}, "contact": {"whatsapp": "https://chat.whatsapp.com/G3PMIJr5DbK84Z5dCIvYxX"}},
{"title": "Neumarkt", "state": "active", "location": {"lat": 46.3169161, "lng": 11.2725698}, "contact": {"whatsapp": "https://chat.whatsapp.com/L6EZvtEi7bNEg4SMGfHCJj"}},
{"title": "Neustadt an der Aisch", "state": "active", "location": {"lat": 49.5818862, "lng": 10.6083702}, "contact": {"whatsapp": "https://chat.whatsapp.com/JQqKefTseJZHJhFJh29ImB"}},
{"title": "Neustadt an der Saale", "state": "active", "location": {"lat": 50.4268611, "lng": 11.7398729}, "contact": {"whatsapp": "https://chat.whatsapp.com/KG6V6LUoHMTL2K3ERkTBj8"}},
{"title": "N\u00f6rdlingen", "state": "active", "location": {"lat": 48.8516578, "lng": 10.4885873}, "contact": {"whatsapp": "https://chat.whatsapp.com/CB7JslkA5vS4HUM29ZWGOy"}},
{"title": "N\u00fcrnberg", "state": "active", "location": {"lat": 49.453872, "lng": 11.077298}, "contact": {"telegram": "https://t.me/fff_nuernberg", "whatsapp": "https://chat.whatsapp.com/JU7S9Zp3HZ1BLAOa0DvxAK"}},
{"title": "Oberg\u00fcnzburg", "state": "active", "location": {"lat": 47.8458763, "lng": 10.4192911}, "contact": {"whatsapp": "https://chat.whatsapp.com/CN9hfmfT3Uo5MzglOTVRgt"}},
{"title": "Oettingen", "state": "active", "location": {"lat": 49.4425009, "lng": 6.0182549}, "contact": {"whatsapp": "https://chat.whatsapp.com/FArcg99JYjUDKHf6ComB4L"}},
{"title": "Passau", "state": "active", "location": {"lat": 48.5748229, "lng": 13.4609744}, "contact": {"whatsapp": "https://chat.whatsapp.com/JHLvoQvfTXh2JhrliQLak2"}},
{"title": "Pegnitz", "state": "active", "location": {"lat": 49.75649, "lng": 11.540944}, "contact": {"whatsapp": "https://chat.whatsapp.com/BVNY9Kr0ZwL1VdyPD8rP4l "}},
{"title": "Penzberg", "state": "active", "location": {"lat": 47.7518502, "lng": 11.3763014}, "contact": {"whatsapp": "https://chat.whatsapp.com/FtxHqA4NGaHJwNOM0W98eA"}},
{"title": "Regensburg", "state": "active", "location": {"lat": 49.0195333, "lng": 12.0974869}, "contact": {"whatsapp": "https://chat.whatsapp.com/FvN5h7Gl4yG0beluIOnoJS"}},
{"title": "Riedenburg", "state": "active", "location": {"lat": 48.961252, "lng": 11.6855725}, "contact": {"whatsapp": "https://chat.whatsapp.com/Fq62SAdJKnzKBCLbwYDmzA"}},
{"title": "Rosenheim", "state": "active", "location": {"lat": 47.8539273, "lng": 12.127262}, "contact": {"whatsapp": "https://chat.whatsapp.com/CYUivRlhE0PBqmlEjdppnX"}},
{"title": "Schwabach", "state": "active", "location": {"lat": 49.3295535, "lng": 11.0195132}, "contact": {"whatsapp": "https://chat.whatsapp.com/ENzlhBxN1mE4Pot4ErSbwY"}},
{"title": "Schweinfurt", "state": "active", "location": {"lat": 50.0499945, "lng": 10.233302}, "contact": {"whatsapp": "https://chat.whatsapp.com/IOgUB9oJ9By1RLTcAxTsQY"}},
{"title": "Sonthofen", "state": "active", "location": {"lat": 47.5135363, "lng": 10.281931}, "contact": {"whatsapp": "https://chat.whatsapp.com/F2cKGJ2sQRF4efPssTSbBI"}},
{"title": "Straubing", "state": "active", "location": {"lat": 48.8819801, "lng": 12.569716}, "contact": {"whatsapp": "https://chat.whatsapp.com/HRhyPLA2fXk72H3gGrQe5l", "email": "fridaysforfuturestraubing@gmail.com"}},
{"title": "Traunstein", "state": "active", "location": {"lat": 47.8701474, "lng": 12.6423403}, "contact": {"whatsapp": "https://chat.whatsapp.com/LYUAKqK0r4ZFxJVQZ8oc6m"}},
{"title": "Treuchtlingen", "state": "active", "location": {"lat": 48.9554435, "lng": 10.9089888}, "contact": {"whatsapp": "https://chat.whatsapp.com/BtWGbUTLhUA3JNGqKGZWSn"}},
{"title": "Vilsbiburg", "state": "active", "location": {"lat": 48.448482, "lng": 12.355795}, "contact": {"whatsapp": "https://chat.whatsapp.com/BEF9rezVjZUAQEbmRK6lXa"}},
{"title": "Vilshofen", "state": "active", "location": {"lat": 49.2978755, "lng": 11.9529711}, "contact": {"whatsapp": "https://chat.whatsapp.com/Lhb4xacByvn7VhIb8z3vwF"}},
{"title": "Volkach", "state": "active", "location": {"lat": 49.8621966, "lng": 10.2314694}, "contact": {"whatsapp": "https://chat.whatsapp.com/DZw8fkmYCwcJ6ZX68QbAtN"}},
{"title": "Wei\u00dfenburg", "state": "active", "location": {"lat": 49.0365935, "lng": 7.9445109}, "contact": {"whatsapp": "https://chat.whatsapp.com/HUYynjlzWSmAVZX6LrSCZS"}},
{"title": "Weiden", "state": "active", "location": {"lat": 46.0634632, "lng": 13.2358377}, "contact": {"whatsapp": "https://chat.whatsapp.com/CELegLEV8Jr3aJtcN23Umg", "email": "fridaysforfutureweiden@gmail.com"}},
{"title": "Weilheim", "state": "active", "location": {"lat": 47.8395072, "lng": 11.1416355}, "contact": {"whatsapp": "https://chat.whatsapp.com/DZD2HUsSrTi6jZF5UslDYf"}},
{"title": "Wertingen", "state": "active", "location": {"lat": 48.5600523, "lng": 10.6807675}, "contact": {"telegram": "https://t.me/joinchat/JzkzMxdh1LG456AjqP8oLw"}},
{"title": "Wolfratshausen", "state": "active", "location": {"lat": 47.9104632, "lng": 11.4266377}, "contact": {"whatsapp": "https://chat.whatsapp.com/En9P3YZchV8EbFulHOfbPh"}},
{"title": "W\u00fcrzburg", "state": "active", "location": {"lat": 49.79245, "lng": 9.932966}, "contact": {"telegram": "https://t.me/FFFwue", "whatsapp": "https://chat.whatsapp.com/E60w7mpfREh97fRlVhHwye", "email": "wuerzburg@fridaysforfuture.de"}},
{"title": "Berlin", "state": "active", "location": {"lat": 52.5170365, "lng": 13.3888599}, "contact": {"telegram": "https://t.me/joinchat/FoyS9haDx8SOsp_ZZrrfIw", "whatsapp": "https://chat.whatsapp.com/Da7sBXLWiqB7VgJPBbMvRQ", "twitter": "https://twitter.com/FFF_Berlin", "website": "https://fridaysforfuture.berlin/", "email": "berlin@fridaysforfuture.de"}},
{"title": "Brandenburg", "state": "active", "location": {"lat": 52.8455492, "lng": 13.2461296}, "contact": {"whatsapp": "https://chat.whatsapp.com/H2Yr1GrQX9R8RZn0UpOyQb", "email": "Brandenburg@fridaysforfuture.de"}},
{"title": "Bad Belzig", "state": "active", "location": {"lat": 52.1405622, "lng": 12.5865873}, "contact": {"whatsapp": "https://chat.whatsapp.com/GOwy533lRajLT1zuuSPbqc"}},
{"title": "Brandenburg an der Havel", "state": "active", "location": {"lat": 52.4108261, "lng": 12.5497933}, "contact": {"telegram": "https://t.me/joinchat/EiRKUxPeGFSd5RAsazRNPw", "whatsapp": "https://chat.whatsapp.com/BrnXPjGTwCC2St1DEFqYtk"}},
{"title": "Bernau", "state": "active", "location": {"lat": 52.6826757, "lng": 13.5876468467339}, "contact": {"telegram": "https://t.me/joinchat/BMVKRRSBjgGk33LufiXELg", "whatsapp": "https://chat.whatsapp.com/E01yKlsnABG23q9a0su5S0", "email": "bernau@fridaysforfuture.de"}},
{"title": "Cottbus", "state": "active", "location": {"lat": 51.7567447, "lng": 14.3357307}, "contact": {"whatsapp": "https://chat.whatsapp.com/H8YfS07RoFXDwHtYNCcqCM"}},
{"title": "Eberswalde", "state": "active", "location": {"lat": 52.8351496, "lng": 13.7997011}, "contact": {"telegram": "https://t.me/joinchat/BMVKRRSBjgGk33LufiXELg", "whatsapp": "https://chat.whatsapp.com/E01yKlsnABG23q9a0su5S0", "email": "eberswalde@fridaysforfuture.de"}},
{"title": "Falkensee", "state": "active", "location": {"lat": 52.5678244, "lng": 13.0855621}, "contact": {"telegram": "https://t.me/joinchat/KfkM_RA9BhgrVFddu-sAUw", "whatsapp": "https://chat.whatsapp.com/G8mrKzOgFSSGcnGxHSPW2f"}},
{"title": "Frankfurt (Oder)", "state": "active", "location": {"lat": 52.32518245, "lng": 14.492776849247}, "contact": {"whatsapp": "https://chat.whatsapp.com/FAmtZTFL9bFJDaSqtZ5OdC"}},
{"title": "F\u00fcrstenwalde/Spree", "state": "active", "location": {"lat": 52.3580209, "lng": 14.064985}, "contact": {"whatsapp": "https://chat.whatsapp.com/ItX77o1EAnaKzMZEr2RSgu"}},
{"title": "Hohen Neuendorf", "state": "active", "location": {"lat": 52.6732755, "lng": 13.2807255}, "contact": {"whatsapp": "https://chat.whatsapp.com/KomlULR83siITMEB1QC46c"}},
{"title": "K\u00f6nigs Wusterhausen", "state": "active", "location": {"lat": 52.2994511, "lng": 13.6244389}, "contact": {"whatsapp": "https://chat.whatsapp.com/HqL5kdGLA1f3VlneBzO75e"}},
{"title": "Ludwigsfelde", "state": "active", "location": {"lat": 52.3016096, "lng": 13.2610163}, "contact": {"whatsapp": "https://chat.whatsapp.com/KYVbsGkbdLu4wGuriezFcM"}},
{"title": "Neuruppin", "state": "active", "location": {"lat": 52.9243859, "lng": 12.8092919}, "contact": {"whatsapp": "https://chat.whatsapp.com/GxbGf5i3EGMEfFQ3dmRHe2"}},
{"title": "Oranienburg", "state": "active", "location": {"lat": 52.7529379, "lng": 13.2457591}, "contact": {"whatsapp": "https://chat.whatsapp.com/CYzou9aFm7s8qWgiqzrqUK"}},
{"title": "Panketal", "state": "active", "location": {"lat": 52.6480137, "lng": 13.5412361}, "contact": {"whatsapp": "https://chat.whatsapp.com/JvXkdiLIYLFKZC7qTlQTDJ"}},
{"title": "Potsdam", "state": "active", "location": {"lat": 52.4009309, "lng": 13.0591397}, "contact": {"telegram": "https://t.me/fff_potsdam_info", "whatsapp": "https://chat.whatsapp.com/JFinOm7FY4U20lc2RzFuSh", "email": "fridaysforfuturepotsdam@gmail.com"}},
{"title": "Rangsdorf", "state": "active", "location": {"lat": 52.2914292, "lng": 13.418888}, "contact": {"whatsapp": "https://chat.whatsapp.com/GBAzdvDPZqs0h6VuThoEjN"}},
{"title": "Strausberg", "state": "active", "location": {"lat": 52.5814009, "lng": 13.8833952}, "contact": {"telegram": "https://t.me/FFFStrausberg", "whatsapp": "https://chat.whatsapp.com/JsAtzenuaUn9IbJn2mYxql"}},
{"title": "Teltow-Fl\u00e4ming", "state": "active", "location": {"lat": 52.0994194, "lng": 13.2658440314407}, "contact": {"whatsapp": "https://chat.whatsapp.com/COjswKPnaCO4mnqyGWwnnd"}},
{"title": "Werder (Havel)", "state": "active", "location": {"lat": 52.3715809, "lng": 12.9329125}, "contact": {"telegram": "https://t.me/joinchat/EiRKUxPeGFSd5RAsazRNPw"}},
{"title": "Bremen", "state": "active", "location": {"lat": 53.0758196, "lng": 8.8071646}, "contact": {"whatsapp": "https://chat.whatsapp.com/Dn2ZVG145O19PxBn1ql7XT"}},
{"title": "Bremerhaven", "state": "active", "location": {"lat": 53.5522264, "lng": 8.5865509}, "contact": {"whatsapp": "https://chat.whatsapp.com/F2yr7s08ggzIKkNQQHuPub"}},
{"title": "Hamburg", "state": "active", "location": {"lat": 53.550341, "lng": 10.000654}, "contact": {"telegram": "http://rebrand.ly/F4FHHtg", "whatsapp": "http://rebrand.ly/F4FHH", "email": "hamburg@fridaysforfuture.de"}},
{"title": "Hessen", "state": "active", "location": {"lat": 50.6118537, "lng": 9.1909725}, "contact": {"whatsapp": "https://chat.whatsapp.com/DJjifiw0rTv5ynrhtNBX33", "email": "Hessen@fridaysforfuture.de"}},
{"title": "Bad Hersfeld", "state": "active", "location": {"lat": 50.8681341, "lng": 9.7068481}, "contact": {"whatsapp": "https://chat.whatsapp.com/CNCpScttntC02RnBvqjplv"}},
{"title": "Bad Nauheim", "state": "active", "location": {"lat": 50.3681107, "lng": 8.7473608}, "contact": {"whatsapp": "https://chat.whatsapp.com/LTrYR3J0p9U81XUSxgj8s4"}},
{"title": "Bebra", "state": "active", "location": {"lat": 50.9682515, "lng": 9.7933333}, "contact": {"whatsapp": "https://chat.whatsapp.com/KAwmmjHQpHw72IErXtggwe"}},
{"title": "Bensheim", "state": "active", "location": {"lat": 49.6810158, "lng": 8.6227577}, "contact": {"whatsapp": "https://chat.whatsapp.com/Cr8EMK8zg9jHzc5V9QpTd6"}},
{"title": "B\u00f6nstadt", "state": "active", "location": {"lat": 50.28608655, "lng": 8.86646338091765}, "contact": {"whatsapp": "https://chat.whatsapp.com/Eds3RRSvtNK0cPvby5ZCMA"}},
{"title": "B\u00fcdingen", "state": "active", "location": {"lat": 49.334193, "lng": 6.3227721}, "contact": {"whatsapp": "https://chat.whatsapp.com/EgG6YQOdqkT2G6zBpTKxg8"}},
{"title": "Darmstadt", "state": "active", "location": {"lat": 49.872775, "lng": 8.651177}, "contact": {"whatsapp": "https://chat.whatsapp.com/IlFBTU6Tf9n8bnqOUfsXEY", "email": "darmstadt@fridaysforfuture.de"}},
{"title": "Eschwege", "state": "active", "location": {"lat": 51.186867, "lng": 10.0575056}, "contact": {"whatsapp": "https://chat.whatsapp.com/DfhkZv2fXv08hH8nY3MJwj"}},
{"title": "Frankfurt am Main", "state": "active", "location": {"lat": 50.1106444, "lng": 8.6820917}, "contact": {"whatsapp": "https://chat.whatsapp.com/D2sir6nSPbKK5VL275n1kq"}},
{"title": "Friedberg", "state": "active", "location": {"lat": 48.3549199, "lng": 10.9838928}, "contact": {"whatsapp": "https://chat.whatsapp.com/LTrYR3J0p9U81XUSxgj8s4"}},
{"title": "Friedrichsdorf", "state": "active", "location": {"lat": 50.2556672, "lng": 8.6511395}, "contact": {"whatsapp": "https://chat.whatsapp.com/EVY67Ua9Nxb47Sspwpw2G2"}},
{"title": "Fritzlar", "state": "active", "location": {"lat": 51.131196, "lng": 9.2748504}, "contact": {"whatsapp": "https://chat.whatsapp.com/BY7w7e4z7xA1FlUL47rLKn"}},
{"title": "Fulda", "state": "active", "location": {"lat": 50.5521486, "lng": 9.676511}, "contact": {"telegram": "https://t.me/joinchat/Jntp51ZhV78rXqPo1TNbSQ", "whatsapp": "https://chat.whatsapp.com/Euu4ZkOuh8dBbUbQr9CiZP", "email": "fulda@fridaysforfuture.de"}},
{"title": "Geisenheim", "state": "active", "location": {"lat": 49.9863945, "lng": 7.96852}, "contact": {"whatsapp": "https://chat.whatsapp.com/FHviFLs6jwWJAPGf6i46Hb"}},
{"title": "Gie\u00dfen", "state": "active", "location": {"lat": 50.5862066, "lng": 8.6742306}, "contact": {"whatsapp": "https://chat.whatsapp.com/invite/ILgE4YPYE1lBjB8684vFcY"}},
{"title": "Gro\u00df-Gerau", "state": "active", "location": {"lat": 49.9194456, "lng": 8.4852426}, "contact": {"whatsapp": "https://chat.whatsapp.com/DdwZq7y3rajGkrWd7VEzeO"}},
{"title": "Gro\u00df-Umstadt", "state": "active", "location": {"lat": 49.8683975, "lng": 8.9289935}, "contact": {"whatsapp": "https://chat.whatsapp.com/B8uDcTqbhEz1UvXtpLtpmf"}},
{"title": "Hanau", "state": "active", "location": {"lat": 50.1335542, "lng": 8.9168179}, "contact": {"whatsapp": "https://chat.whatsapp.com/GkEHC4gf3CMEAx1YgMAZyl"}},
{"title": "Hebenshausen", "state": "active", "location": {"lat": 51.3897668, "lng": 9.9131407}, "contact": {"whatsapp": "https://chat.whatsapp.com/IFn7DygaKR51n5StfrE2Xb"}},
{"title": "Herbron", "state": "active", "location": {"lat": 13.440908, "lng": 120.7144865}, "contact": {"whatsapp": "https://chat.whatsapp.com/JB0ZnVuzp8vH8ZXdVghhNo"}},
{"title": "Hochtaunuskreis & Kronberg", "state": "active", "location": {"lat": 50.1796561, "lng": 8.5085855}, "contact": {"whatsapp": "https://chat.whatsapp.com/HoTbmb38u6BH5ptCrVSXVj"}},
{"title": "Kassel", "state": "active", "location": {"lat": 51.3076867, "lng": 9.4624705}, "contact": {"telegram": "https://t.me/joinchat/ANGTeBT2xlyVfltM1uo8mQ", "whatsapp": "https://chat.whatsapp.com/JrOy6L835xXHUz3LkJQ09s", "email": "kassel@fridaysforfuture.de"}},
{"title": "Limburg", "state": "active", "location": {"lat": 51.2008195, "lng": 5.9041916}, "contact": {"whatsapp": "https://chat.whatsapp.com/FT0D0DSNzJ6IF3morH9kJ7"}},
{"title": "Lohr", "state": "active", "location": {"lat": 48.8578443, "lng": 7.244721}, "contact": {"whatsapp": "https://chat.whatsapp.com/Ct0ULx7erqC2nriyD2D7tt"}},
{"title": "Marburg", "state": "active", "location": {"lat": 50.8117327, "lng": 8.7757742}, "contact": {"whatsapp": "https://chat.whatsapp.com/GfHFRWo5s7t6gM5sSUNDvB", "email": " fridaysforfuture-mr@posteo.de"}},
{"title": "Niddatal", "state": "active", "location": {"lat": 50.2833, "lng": 8.83333}, "contact": {"whatsapp": "https://chat.whatsapp.com/KWe7HXRMH7aDIXkTHTHlYU"}},
{"title": "Neukirchen", "state": "active", "location": {"lat": 50.7958012, "lng": 12.3786314}, "contact": {"email": "neunkirchen@fridaysforfuture.de"}},
{"title": "Odenwaldkreis", "state": "active", "location": {"lat": 49.6841067, "lng": 8.973222}, "contact": {"whatsapp": "https://chat.whatsapp.com/DF3WSpdtUjp20THCAfSt3U"}},
{"title": "Offenbach", "state": "active", "location": {"lat": 50.1055002, "lng": 8.7610698}, "contact": {"whatsapp": "https://chat.whatsapp.com/CSegd4uhZyE2BWqCg0v4vA"}},
{"title": "Schwalm-Eder-Kreis", "state": "active", "location": {"lat": 51.0151052, "lng": 9.32852788625141}, "contact": {"whatsapp": "https://chat.whatsapp.com/H0qGB36D4euBpbyD2NYDsG"}},
{"title": "Seligenstadt", "state": "active", "location": {"lat": 50.0347055, "lng": 8.9593719}, "contact": {"whatsapp": "https://chat.whatsapp.com/HSATkeogtToKWm86l9dOgT"}},
{"title": "Wehrheim", "state": "active", "location": {"lat": 50.3026597, "lng": 8.5688823}, "contact": {"whatsapp": "https://chat.whatsapp.com/Ho8jhyrvbgF6CDLHeLUuAo"}},
{"title": "Weilburg", "state": "active", "location": {"lat": 50.4823062, "lng": 8.2669053}, "contact": {"whatsapp": "https://chat.whatsapp.com/CwnfTx1WAKbDIUTSlBjiXE"}},
{"title": "Wetzlar", "state": "active", "location": {"lat": 50.5525346, "lng": 8.5074406}, "contact": {"whatsapp": "https://chat.whatsapp.com/JBXwnXG243P9ufGOnfryOC"}},
{"title": "Wiesbaden", "state": "active", "location": {"lat": 50.0820384, "lng": 8.2416556}, "contact": {"whatsapp": "https://chat.whatsapp.com/Fh1wla8Xwjw6uMPl3KeS6D"}},
{"title": "Witzenhausen", "state": "active", "location": {"lat": 51.3424772, "lng": 9.8578217}, "contact": {"whatsapp": "https://chat.whatsapp.com/CPJ1wkKsDYU2VEKJ1aiKln"}},
{"title": "Mecklenburg-Vorpommern", "state": "active", "location": {"lat": 53.7735234, "lng": 12.5755746}, "contact": {"whatsapp": "https://chat.whatsapp.com/JyhvgiDVNHCI1xgXW7y3wP"}},
{"title": "Anklam", "state": "active", "location": {"lat": 53.8560526, "lng": 13.688091}, "contact": {"whatsapp": "https://chat.whatsapp.com/JI5pQQKfzoj7iSHdoUFtmw"}},
{"title": "Bad Doberan", "state": "active", "location": {"lat": 54.105858, "lng": 11.9026057}, "contact": {"whatsapp": "https://chat.whatsapp.com/I3sAFLR3CNQAin2EEdjSWR"}},
{"title": "Boizenburg/Elbe", "state": "active", "location": {"lat": 53.3750038, "lng": 10.7231398}, "contact": {"whatsapp": "https://chat.whatsapp.com/ETu2D0y065ZBiklBfzPXjM"}},
{"title": "Demmin", "state": "active", "location": {"lat": 53.9070019, "lng": 13.0327836}, "contact": {"whatsapp": "https://chat.whatsapp.com/L7HiJBOYM75Lk3Q6o4MLSK"}},
{"title": "Friedland", "state": "active", "location": {"lat": 53.6716022, "lng": 13.5487647}, "contact": {"whatsapp": "https://chat.whatsapp.com/GAjIYR6DAvDIFyGiROYlmJ"}},
{"title": "Greifswald", "state": "active", "location": {"lat": 54.095791, "lng": 13.3815238}, "contact": {"telegram": "http://t.me/FFFGreifswald", "whatsapp": "https://chat.whatsapp.com/Ho3tmxJF7K1JyvWbTYAb5Z", "email": "greifswald@fridaysforfuture.de"}},
{"title": "Insel Usedom", "state": "active", "location": {"lat": 53.9905064, "lng": 14.0829450915978}, "contact": {"whatsapp": "https://chat.whatsapp.com/invite/B5DPYaU2Fgk2wvbnjiDrlF"}},
{"title": "Neubrandenburg", "state": "active", "location": {"lat": 53.5574458, "lng": 13.2602781}, "contact": {"whatsapp": "https://chat.whatsapp.com/GrUeJRaDE0Q7zUCwwjctlz", "email": "Neubrandenburg@FridaysForFuture.de "}},
{"title": "Ribnitz-Damgarten", "state": "active", "location": {"lat": 54.2433326, "lng": 12.4319733}, "contact": {"whatsapp": "https://chat.whatsapp.com/JDG7OEE6tmmCW4xLkpX8nh"}},
{"title": "Rostock", "state": "active", "location": {"lat": 54.0924445, "lng": 12.1286127}, "contact": {"whatsapp": "https://chat.whatsapp.com/Khlz0waduNZ2MkG37nEPxI", "email": "rostock@fridaysforfuture.de"}},
{"title": "Schwerin", "state": "active", "location": {"lat": 53.6288297, "lng": 11.4148038}, "contact": {"whatsapp": "https://chat.whatsapp.com/IhbHsiiS0ND9P0WMLjko6O"}},
{"title": "Stralsund", "state": "active", "location": {"lat": 54.3159851, "lng": 13.0904622}, "contact": {"whatsapp": "https://chat.whatsapp.com/IcFmS7RRsLKLTHH6WDa1AA"}},
{"title": "Wismar", "state": "active", "location": {"lat": 53.8909832, "lng": 11.4647932}, "contact": {"whatsapp": "https://chat.whatsapp.com/E5s5jB9J6CvASl9ElcxGOV"}},
{"title": "Niedersachsen", "state": "active", "location": {"lat": 52.8398531, "lng": 9.075962}, "contact": {"telegram": "https://t.me/joinchat/B-xzT1CkNWuHc6nvv7BAkg", "whatsapp": "https://chat.whatsapp.com/KmxXeH4Xtwh7cyqHJ4LdlP"}},
{"title": "Achim", "state": "active", "location": {"lat": 53.0068811, "lng": 9.0425504}, "contact": {"whatsapp": "https://chat.whatsapp.com/CCP7S04veFwD0TsHpHLYi2"}},
{"title": "Aurich", "state": "active", "location": {"lat": 53.4695604, "lng": 7.4823808}, "contact": {"whatsapp": "https://chat.whatsapp.com/invite/IEXaH4wdnKr8HD6oPge44u"}},
{"title": "Bad Bevensen", "state": "active", "location": {"lat": 53.0809408, "lng": 10.5744812}, "contact": {"whatsapp": "https://chat.whatsapp.com/IgzgiOu6M00KtsG0u4kEJl"}},
{"title": "Bad Gandersheim", "state": "active", "location": {"lat": 51.8704732, "lng": 10.0297839}, "contact": {"whatsapp": "https://chat.whatsapp.com/CFFhUPbp1zj3lTGKpKDypl"}},
{"title": "Bassum", "state": "active", "location": {"lat": 52.8495881, "lng": 8.728382}, "contact": {"telegram": "http://t.me/fffbassum"}},
{"title": "Braunschweig", "state": "active", "location": {"lat": 52.2646577, "lng": 10.5236066}, "contact": {"telegram": "https://t.me/fridaysforfuturebs", "whatsapp": "https://chat.whatsapp.com/I2nB97AftzIB5ET74yCAzU", "studis": "https://chat.whatsapp.com/Ei1JWzkmMGBF5NKq6B6OW5"}},
{"title": "Buchholz in der Nordheide", "state": "active", "location": {"lat": 53.3333021, "lng": 9.8666653}, "contact": {"whatsapp": "https://chat.whatsapp.com/JncdR4sJILh0zb3bCuTJXy"}},
{"title": "B\u00fcckeburg", "state": "active", "location": {"lat": 52.2611037, "lng": 9.0488959}, "contact": {"telegram": "https://t.me/joinchat/EppBIw3HTx356C39WNTtyg", "whatsapp": "https://chat.whatsapp.com/BKsTdlKBStn8yTVqmJFvUg"}},
{"title": "Buxtehude", "state": "active", "location": {"lat": 53.4767351, "lng": 9.7003941}, "contact": {"whatsapp": "https://chat.whatsapp.com/LouzcPIfxfX2fu9qMWK5lC"}},
{"title": "Celle", "state": "active", "location": {"lat": 52.624056, "lng": 10.081052}, "contact": {"whatsapp": "https://chat.whatsapp.com/CDcj2qxLn0YLHj5RbFVlav", "email": "celle@fridaysforfuture.de"}},
{"title": "Cloppenburg und Vechta", "state": "active", "location": {"lat": 52.8442029, "lng": 8.05213088698993}, "contact": {"whatsapp": "https://chat.whatsapp.com/D24oTj8mBePGzQPp6lnR8E"}},
{"title": "Cuxhaven", "state": "active", "location": {"lat": 53.86878, "lng": 8.698286}, "contact": {"whatsapp": "https://chat.whatsapp.com/EYrapkDGbt4IbrnT1tAy2K"}},
{"title": "Delmenhorst", "state": "active", "location": {"lat": 53.0528092, "lng": 8.6294626}, "contact": {"whatsapp": "https://chat.whatsapp.com/EFIdxHOIebFHyT0zfLHJw7"}},
{"title": "Diepholz", "state": "active", "location": {"lat": 52.6113677, "lng": 8.372661}, "contact": {"whatsapp": "https://chat.whatsapp.com/DWiUFZCL84rKMlKwL4HDTa"}},
{"title": "Einbeck", "state": "active", "location": {"lat": 51.8185067, "lng": 9.8678465}, "contact": {"whatsapp": "https://chat.whatsapp.com/BuVfRyySTXVIssNykaZvFL"}},
{"title": "Emden", "state": "active", "location": {"lat": 53.3670541, "lng": 7.2058304}, "contact": {"whatsapp": "https://chat.whatsapp.com/HpB76pFMWhOH3jFOhUUPyP"}},
{"title": "Esens", "state": "active", "location": {"lat": 53.6468107, "lng": 7.6118499}, "contact": {"whatsapp": "https://chat.whatsapp.com/IbHddipfDYRAN5egZE99NE"}},
{"title": "Friesoythe", "state": "active", "location": {"lat": 53.0207, "lng": 7.85911}, "contact": {"whatsapp": "https://chat.whatsapp.com/H5nohx3llSKKfe2FYBetQp"}},
{"title": "Ganderkesee", "state": "active", "location": {"lat": 53.0344984, "lng": 8.5451469}, "contact": {"whatsapp": "https://chat.whatsapp.com/Bv0lNz4zrah7YD66g1VuT4"}},
{"title": "Gifhorn", "state": "active", "location": {"lat": 52.4827905, "lng": 10.5445691}, "contact": {"whatsapp": "https://chat.whatsapp.com/Kp7GmTmUoOA9T2DKVho3ms"}},
{"title": "Goslar", "state": "active", "location": {"lat": 51.9059936, "lng": 10.4266284}, "contact": {"whatsapp": "https://chat.whatsapp.com/H8XjD4Jqp0SHJSii6rQ80U ", "email": "fridaysforfuturegoslar@gmail.com"}},
{"title": "G\u00f6ttingen", "state": "active", "location": {"lat": 51.5327604, "lng": 9.9352051}, "contact": {"telegram": "http://t.me/FFFGoettingenhttp://t.me/FFFGoettingen", "whatsapp": "https://chat.whatsapp.com/GnVgPY056QdFX1pAr8UQfX"}},
{"title": "Hannover", "state": "active", "location": {"lat": 52.3744779, "lng": 9.7385532}, "contact": {"telegram": "https://t.me/FFF_Hannover_Info", "whatsapp ": "https://chat.whatsapp.com/IIR2zmejSf39GM4MwfF2kc", "email": "kontakt@fridaysforfuture-hannover.de"}},
{"title": "Hemmingen", "state": "active", "location": {"lat": 52.3167, "lng": 9.75}, "contact": {"whatsapp": "https://chat.whatsapp.com/LJ82VtqfhESA49HJWFwvnA"}},
{"title": "Hildesheim", "state": "active", "location": {"lat": 52.1521636, "lng": 9.9513046}, "contact": {"whatsapp": "https://chat.whatsapp.com/DlE4PjXN93SKSa0VNm1M4Q", "email": "hildesheim@fridaysforfuture.de"}},
{"title": "Holzminden (am Solling)", "state": "active", "location": {"lat": 51.7596918, "lng": 9.52741736375769}, "contact": {"whatsapp": "https://chat.whatsapp.com/Hqo1rI5lQYh0AEyLxqMnNa"}},
{"title": "Jever", "state": "active", "location": {"lat": 53.5736426, "lng": 7.9020696}, "contact": {"whatsapp": "https://chat.whatsapp.com/IaPYiq5wrxBFKTBakAThWG"}},
{"title": "Juist", "state": "active", "location": {"lat": 53.6784483, "lng": 6.9956079}, "contact": {"whatsapp": "https://chat.whatsapp.com/LdWW59wdsgzEA1zZ9Yhdpq"}},
{"title": "Leer", "state": "active", "location": {"lat": 53.2473626, "lng": 7.46314680378176}, "contact": {"telegram": "https://t.me/joinchat/CVAvcQ-eDKOkh6gYfYvqrA", "whatsapp": "https://chat.whatsapp.com/BKAa7kEFrUiIK3Hm5SujPk"}},
{"title": "Lehrte", "state": "active", "location": {"lat": 52.3749334, "lng": 9.9748557}, "contact": {"telegram": "https://t.me/joinchat/CGoQGw-cB2b6k6Mm6ns-4g", "whatsapp": "https://chat.whatsapp.com/CEkzWViCVXE7605QZ4GNAW", "email": "lehrte@fridaysforfuture.de"}},
{"title": "L\u00fcneburg", "state": "active", "location": {"lat": 53.248706, "lng": 10.407855}, "contact": {"whatsapp": "https://chat.whatsapp.com/GuxxyeGEXT9LG8En57PlR5", "email": "lueneburg@fridaysforfuture.de"}},
{"title": "Kreis Nienburg", "state": "active", "location": {"lat": 52.6384265, "lng": 9.23559036471873}, "contact": {"whatsapp": "https://chat.whatsapp.com/GT8fApOGnVt9hYwts4tNR2"}},
{"title": "Nienburg (Weser)", "state": "active", "location": {"lat": 52.6410849, "lng": 9.2181918}, "contact": {"whatsapp": "https://chat.whatsapp.com/EnCO3Mm6aPqAJ5Xqh7WdD1"}},
{"title": "Norden", "state": "active", "location": {"lat": 53.5942039, "lng": 7.2067435}, "contact": {"whatsapp": "https://chat.whatsapp.com/KHxz1pNs1sn7BxSW8Knn8S"}},
{"title": "Nordhorn", "state": "active", "location": {"lat": 52.4359731, "lng": 7.0707659}, "contact": {"whatsapp": "https://chat.whatsapp.com/JFg4DDkVrCm1Hgfhy3D1Gs"}},
{"title": "Meine", "state": "active", "location": {"lat": 52.384917, "lng": 10.539227}, "contact": {"whatsapp": "https://chat.whatsapp.com/JJToDiFZf2l7zaYfv7k32f"}},
{"title": "Northeim", "state": "active", "location": {"lat": 51.705401, "lng": 9.9972782}, "contact": {"whatsapp": "https://chat.whatsapp.com/DmR3Q0zbANgK4UCqHD7zPy"}},
{"title": "Oldenburg", "state": "active", "location": {"lat": 53.1389753, "lng": 8.2146017}, "contact": {"telegram": "https://t.me/joinchat/LcLY3Beossg_-fRJAtaTmA", "whatsapp": "https://chat.whatsapp.com/Gel93C5EQZDCPbdVCqTk3g", "whatsapp studierende": "https://chat.whatsapp.com/LRCdCyey8Ld12jSsDtCfU6", "email": "oldenburg@fridaysforfuture.de"}},
{"title": "Osnabr\u00fcck", "state": "active", "location": {"lat": 52.266837, "lng": 8.049741}, "contact": {"telegram": "https://t.me/FridaysForFutureOsnabrueck", "telegram studierende": "https://t.me/joinchat/BEqJyEbdMoWD8Lt5Nn7mqg", "whatsapp": "https://chat.whatsapp.com/EARIo4yLGcoKCnf9B7iddJ", "whatsapp studierende": "https://chat.whatsapp.com/KzmZLI1VDW5Hb8rpf4VjrG"}},
{"title": "Ostfriesland", "state": "active", "location": {"lat": 53.37302495, "lng": 7.4415534570347}, "contact": {"whatsapp": "https://chat.whatsapp.com/Jv4duVql9JjDArIbfU0GUy", "email": "ostfriesland@fridaysforfuture.de"}},
{"title": "Papenburg", "state": "active", "location": {"lat": 53.0822606, "lng": 7.3928398}, "contact": {"whatsapp": "https://chat.whatsapp.com/Dl7bJB0ELLsCsnIIafU39N"}},
{"title": "Peine", "state": "active", "location": {"lat": 52.3217849, "lng": 10.2349489}, "contact": {"whatsapp": "https://chat.whatsapp.com/Bcl6zjWLjd5JzzZwOXM8ZX"}},
{"title": "Rastede", "state": "active", "location": {"lat": 53.2467081, "lng": 8.201904}, "contact": {"whatsapp": "https://chat.whatsapp.com/BlsVtENzYR8G9XQVQx4iyV"}},
{"title": "Salzgitter", "state": "active", "location": {"lat": 52.1503721, "lng": 10.3593147}, "contact": {"whatsapp": "https://chat.whatsapp.com/HLjIiFvyNYbA1LFnln9JL1"}},
{"title": "Salzgitter-Bad", "state": "active", "location": {"lat": 52.0462988, "lng": 10.3721997}, "contact": {"whatsapp": "https://chat.whatsapp.com/F1euNvcQkPsBsYtcHToz2H"}},
{"title": "Schneverdingen", "state": "active", "location": {"lat": 53.1165973, "lng": 9.7925898}, "contact": {"whatsapp": "https://chat.whatsapp.com/CBoflADhtGzBIXTB7Dn6nK", "email": "fff-schneverdingen@mail.de"}},
{"title": "Solling", "state": "active", "location": {"lat": 47.8771351, "lng": 12.7769464}, "contact": {"whatsapp": "https://chat.whatsapp.com/Hqo1rI5lQYh0AEyLxqMnNa"}},
{"title": "Stade", "state": "active", "location": {"lat": 53.599794, "lng": 9.475438}, "contact": {"whatsapp": "https://chat.whatsapp.com/Dnwwp3WwXZqKwdsjziUapk"}},
{"title": "Tostedt", "state": "active", "location": {"lat": 53.28265, "lng": 9.7124175}, "contact": {"whatsapp": "https://chat.whatsapp.com/Dl0e6HZKiFX891gsvPZnPG"}},
{"title": "Uelzen", "state": "active", "location": {"lat": 52.966838, "lng": 10.558615}, "contact": {"whatsapp": "https://chat.whatsapp.com/KQ11I1f46tS6fb5eJq0dHp"}},
{"title": "Uslar", "state": "active", "location": {"lat": 51.6586082, "lng": 9.6338073}, "contact": {"whatsapp": "https://chat.whatsapp.com/BD8LPVQpA660DgB6vVBdkC"}},
{"title": "Varel", "state": "active", "location": {"lat": 53.395777, "lng": 8.1372149}, "contact": {"whatsapp": "https://chat.whatsapp.com/FmPwCs6VpF44gayTRZRWDs"}},
{"title": "Verden (Aller)", "state": "active", "location": {"lat": 52.94106755, "lng": 9.23547162744054}, "contact": {"whatsapp": "https://chat.whatsapp.com/JRA9a76PoZLD2qj88Vvj5S"}},
{"title": "Walsrode", "state": "active", "location": {"lat": 52.8625395, "lng": 9.5883023}, "contact": {"whatsapp": "https://chat.whatsapp.com/JEsB5bGz4sYFuRk9fm48Bp"}},
{"title": "Wangerooge", "state": "active", "location": {"lat": 53.7891528, "lng": 7.9016018}, "contact": {"whatsapp": "https://chat.whatsapp.com/KTO9HidSUlg4pAAha5duyN"}},
{"title": "Wendland", "state": "active", "location": {"lat": 51.3413732, "lng": 13.3427438}, "contact": {"whatsapp": "https://chat.whatsapp.com/C9875xLSd5v9OIsCcgLcqs"}},
{"title": "Wennigsen", "state": "active", "location": {"lat": 52.2762744, "lng": 9.5671846}, "contact": {"whatsapp": "https://chat.whatsapp.com/JpwbXbFKCV74cVAu6mElvw"}},
{"title": "Weyhe", "state": "active", "location": {"lat": 52.9821257, "lng": 8.8495643}, "contact": {"whatsapp": "http://\u200ehttps://chat.whatsapp.com/ChduupyHbHG4LB93rp1rDt"}},
{"title": "Winsen", "state": "active", "location": {"lat": 53.3636474, "lng": 10.2059206}, "contact": {"whatsapp": "https://chat.whatsapp.com/Jdq5dsRm9UG33rOqSNqdvB"}},
{"title": "Wilhelmshaven", "state": "active", "location": {"lat": 53.5701325, "lng": 8.09473771103035}, "contact": {"whatsapp": "https://chat.whatsapp.com/EqQz7GIaFpRGA6PktiBIhK"}},
{"title": "Wolfenb\u00fcttel", "state": "active", "location": {"lat": 52.1625283, "lng": 10.5348215}, "contact": {"whatsapp": "https://chat.whatsapp.com/CmWw6sKCelwBR6vQ2YCMOZ"}},
{"title": "Wolfsburg", "state": "active", "location": {"lat": 52.4205588, "lng": 10.7861682}, "contact": {"whatsapp": "https://chat.whatsapp.com/DbQrRy7dCWsBjGl1FecC5H"}},
{"title": "Wunstorf", "state": "active", "location": {"lat": 52.4257979, "lng": 9.4294425}, "contact": {"whatsapp": "https://chat.whatsapp.com/LY5zeSwTam11XGeyu9bUYc"}},
{"title": "Nordrhein-Westfalen", "state": "active", "location": {"lat": 51.4785568, "lng": 7.5533645}, "contact": {"whatsapp": "https://chat.whatsapp.com/FjvtVYMTajt3Z2LWrfG5Y6", "wechange": "https://wechange.de/project/fridays-for-future-nrw/", "discord": "http://fffutu.re/discord", "email": "nordrhein.westfalen@fridaysforfuture.de"}},
{"title": "Aachen", "state": "active", "location": {"lat": 50.776351, "lng": 6.083862}, "contact": {"telegram": "https://t.me/FFF_AC_Info", "whatsapp": "https://chat.whatsapp.com/FjvtVYMTajt3Z2LWrfG5Y6", "info": "https://rebrand.ly/FFF_AC_Infos", "email": "aachen@fridaysforfuture.de"}},
{"title": "Ahaus", "state": "active", "location": {"lat": 52.0761541, "lng": 7.004876}, "contact": {"whatsapp": "https://chat.whatsapp.com/GQfnFNtJm1c7WcvROTz7jo"}},
{"title": "Ahlen", "state": "active", "location": {"lat": 51.7627633, "lng": 7.8909086}, "contact": {"whatsapp": "https://chat.whatsapp.com/FfrsnWEQk9x2FXeHUYWgSV"}},
{"title": "Attendorn", "state": "active", "location": {"lat": 51.1250541, "lng": 7.9010992}, "contact": {"whatsapp": "https://chat.whatsapp.com/Ll4KvDj0zsf5Nn2NPup46u"}},
{"title": "Arnsberg", "state": "active", "location": {"lat": 51.4002384, "lng": 8.0605908}, "contact": {"whatsapp": "https://chat.whatsapp.com/BhH9J7A0e6SGU6kxrZPqNd"}},
{"title": "Bad Driburg", "state": "active", "location": {"lat": 51.7366427, "lng": 9.0175012}, "contact": {"whatsapp": "https://chat.whatsapp.com/HglUwt4yvUQIbO3tu4L1T5"}},
{"title": "Bad Oeynhausen", "state": "active", "location": {"lat": 52.2014399, "lng": 8.7981244}, "contact": {"whatsapp": "https://chat.whatsapp.com/ItdxFcwCOOSHLghoenWstZ"}},
{"title": "Bergkamen", "state": "active", "location": {"lat": 51.6149389, "lng": 7.6362876}, "contact": {"whatsapp": "https://chat.whatsapp.com/JWK2gfGze0i2Od3zxlhjnc"}},
{"title": "Bergheim", "state": "active", "location": {"lat": 49.4387008, "lng": 5.8811868}, "contact": {"whatsapp": "https://chat.whatsapp.com/IFQZyUrAcRw5Tfz9D8uJE3"}},
{"title": "Bergisch Gladbach", "state": "active", "location": {"lat": 50.9929303, "lng": 7.1277379}, "contact": {"whatsapp": "https://chat.whatsapp.com/Ie2twSVcVVyJKV9neVsYUg"}},
{"title": "Bielefeld", "state": "active", "location": {"lat": 52.0191005, "lng": 8.531007}, "contact": {"whatsapp": "https://chat.whatsapp.com/BLI25I34f1IBPjrELi0wrL", "email": "Bielefeld@fridaysforfuture.de "}},
{"title": "Br\u00fcggen", "state": "active", "location": {"lat": 51.2430813, "lng": 6.1812296}, "contact": {"telegram": "https://t.me/fridaysforfuturebrueggen"}},
{"title": "Br\u00fchl", "state": "active", "location": {"lat": 50.8291313, "lng": 6.9037057}, "contact": {"whatsapp": "https://chat.whatsapp.com/JXY4S0TpYvA6NqLClqiHeW"}},
{"title": "Bocholt", "state": "active", "location": {"lat": 51.8382715, "lng": 6.6148669}, "contact": {"whatsapp": "https://chat.whatsapp.com/JzEWhrhA8xr9wAJ6zCZfw7"}},
{"title": "Bochum", "state": "active", "location": {"lat": 51.4818111, "lng": 7.2196635}, "contact": {"whatsapp": "https://chat.whatsapp.com/FMej8QznH750Hd1KzaqVB4"}},
{"title": "Bocholt", "state": "active", "location": {"lat": 51.8382715, "lng": 6.6148669}, "contact": {"whatsapp": "https://chat.whatsapp.com/G80LbweBvWj795z4wGrZZb"}},
{"title": "Bonn", "state": "active", "location": {"lat": 50.735851, "lng": 7.10066}, "contact": {"whatsapp": "https://chat.whatsapp.com/DyhFDTmH3oY7a7BJr1AT24"}},
{"title": "Bornheim", "state": "active", "location": {"lat": 50.7627913, "lng": 6.9890508}, "contact": {"whatsapp": "https://chat.whatsapp.com/KZZSVFWIjZi2a2XHfif4IU"}},
{"title": "Borken", "state": "active", "location": {"lat": 51.8443183, "lng": 6.8582247}, "contact": {"whatsapp": "https://chat.whatsapp.com/DIn5ULv6Vbd0N3jvrO50Nu", "email": "borken@fridaysforfuture.de"}},
{"title": "Bottrop", "state": "active", "location": {"lat": 51.521581, "lng": 6.929204}, "contact": {"whatsapp": "https://chat.whatsapp.com/FSjj7aCirpn2AjqWFWx81u"}},
{"title": "B\u00fcnde", "state": "active", "location": {"lat": 52.2003644, "lng": 8.5827558}, "contact": {"whatsapp": "https://chat.whatsapp.com/E9rLAZ61EXOJCVvtA9BSzT"}},
{"title": "Castrop-Rauxel", "state": "active", "location": {"lat": 51.5646195, "lng": 7.3106175}, "contact": {"whatsapp": "https://chat.whatsapp.com/invite/B9uUsp3PkF1EeMaySRqJY7"}},
{"title": "Datteln", "state": "active", "location": {"lat": 51.6512192, "lng": 7.3393014}, "contact": {"whatsapp": "https://chat.whatsapp.com/BOjn6XtyhmxGkZvApvVTTk"}},
{"title": "Detmold", "state": "active", "location": {"lat": 51.936284, "lng": 8.8791526}, "contact": {"whatsapp": "https://chat.whatsapp.com/D9kLh0vRMfK0phQEbCrxWM"}},
{"title": "Dinslaken", "state": "active", "location": {"lat": 51.567365, "lng": 6.7382029}, "contact": {"whatsapp": "https://chat.whatsapp.com/BhQcpFyDXL12M82nmGhlEs"}},
{"title": "Dorsten", "state": "active", "location": {"lat": 51.6604071, "lng": 6.9647431}, "contact": {"whatsapp": "https://chat.whatsapp.com/DyZ1dHjK6QuJ4GdwbGcskj"}},
{"title": "Dortmund", "state": "active", "location": {"lat": 51.5142273, "lng": 7.4652789}, "contact": {"whatsapp": "https://chat.whatsapp.com/DuAJRMjPP495FRRqmMbNsn", "email": "dortmund@fridaysforfuture.de"}},
{"title": "Duisburg", "state": "active", "location": {"lat": 51.434999, "lng": 6.759562}, "contact": {"whatsapp": "https://chat.whatsapp.com/DcdQaP2rAUqATKKEzddlYU", "email": "duisburg@fridaysforfuture.de"}},
{"title": "D\u00fclmen", "state": "active", "location": {"lat": 51.8283677, "lng": 7.2791406}, "contact": {"whatsapp": "https://chat.whatsapp.com/L5M79UapXntLnsm8JORrcu"}},
{"title": "D\u00fcren", "state": "active", "location": {"lat": 50.8031684, "lng": 6.4820806}, "contact": {"whatsapp": "https://chat.whatsapp.com/IJUpLJTtTPbEKVpidQBDfi"}},
{"title": "D\u00fcsseldorf", "state": "active", "location": {"lat": 51.2254018, "lng": 6.7763137}, "contact": {"telegram": "https://t.me/FFFDuesseldorf", "whatsapp": "https://chat.whatsapp.com/HF7w33gNkf8JFAP0l1urbC", "telegram studierende": "https://t.me/joinchat/MlINiEdhT0l8Ek8ppomrng", "whatsapp studierend": "https://chat.whatsapp.com/L7g3kd9H2vBKWqGAuaIemm", "newsletter ": "https://docs.google.com/forms/d/e/1FAIpQLSeLWfI2u8wo64t3w-SOohtsL4vR_Mwowe2WdqKBVB6S3AygfA/viewform", "email": "duesseldorf@fridaysforfuture.de"}},
{"title": "Enger", "state": "active", "location": {"lat": 52.1394015, "lng": 8.5588818}, "contact": {"whatsapp": "https://chat.whatsapp.com/HLajM3bo13O5KvGCzsXLTo"}},
{"title": "Essen", "state": "active", "location": {"lat": 51.457087, "lng": 7.011429}, "contact": {"whatsapp": "https://chat.whatsapp.com/FJwNKVg1ETB1mNwimM68YS", "whatsapp studierende": "https://chat.whatsapp.com/LQ55frF8rgvEBmukP0hQiE", "email": "essen@fridaysforfuture.de"}},
{"title": "Erftstadt", "state": "active", "location": {"lat": 50.789982, "lng": 6.78154922122218}, "contact": {"whatsapp": "https://chat.whatsapp.com/FmmLl9Gq5zLEh19aP5ONB9"}},
{"title": "Erkelenz", "state": "active", "location": {"lat": 51.080992, "lng": 6.3160684}, "contact": {"whatsapp": "https://chat.whatsapp.com/HUSQdBPPPCaIB43QkdwyR1"}},
{"title": "Erkrath", "state": "active", "location": {"lat": 51.2222062, "lng": 6.9123242}, "contact": {"telegram": "https://t.me/joinchat/LEOn9BO77dyF8ioNqfhBEQ"}},
{"title": "Gangelt", "state": "active", "location": {"lat": 50.9927053, "lng": 5.9965571}, "contact": {"whatsapp": "https://chat.whatsapp.com/KaMR8cxONsA2kj4o84YBbm"}},
{"title": "Geilenkirchen", "state": "active", "location": {"lat": 50.963605, "lng": 6.1199802}, "contact": {"whatsapp": "https://chat.whatsapp.com/DzAivxtyzm2FvI8dg9wN3d"}},
{"title": "Gelsenkirchen", "state": "active", "location": {"lat": 51.5110321, "lng": 7.0960124}, "contact": {"whatsapp": "https://chat.whatsapp.com/Ij870VH3kbu3axmnEYWDAu"}},
{"title": "Gronau", "state": "active", "location": {"lat": 52.2118499, "lng": 7.0236342}, "contact": {"whatsapp": "https://chat.whatsapp.com/H1kdJJwQYST136jwR3xzzN"}},
{"title": "G\u00fctersloh", "state": "active", "location": {"lat": 51.9063997, "lng": 8.3782078}, "contact": {"whatsapp": "https://chat.whatsapp.com/LF4KkJh49jjEzYXX83pfLk", "email": "guetersloh@fridaysforfuture.de"}},
{"title": "Haan", "state": "active", "location": {"lat": 51.1954956, "lng": 7.0085328}, "contact": {"whatsapp": "https://chat.whatsapp.com/Cvc7Nb2hpoQB8EKf7WvsqP"}},
{"title": "Hagen", "state": "active", "location": {"lat": 51.3582945, "lng": 7.473296}, "contact": {"whatsapp": "https://chat.whatsapp.com/DLw28qxDVP2A31rolQnH5w", "email": "fff@hatopia.de"}},
{"title": "Halberstadt", "state": "active", "location": {"lat": 51.8926561, "lng": 11.0554519}, "contact": {"whatsapp": "https://chat.whatsapp.com/Cp48hKQ11OsE3bgtl7m03O"}},
{"title": "Halle", "state": "active", "location": {"lat": 51.4825041, "lng": 11.9705452}, "contact": {"whatsapp": "https://chat.whatsapp.com/DfJ1bNkgg7iKpys6pFKgI0"}},
{"title": "Hamm", "state": "active", "location": {"lat": 51.6616271, "lng": 7.82168312484634}, "contact": {"whatsapp": "https://chat.whatsapp.com/KhgMRbfQMuC7wpzZFhgPX2"}},
{"title": "Herford", "state": "active", "location": {"lat": 52.1152245, "lng": 8.6711118}, "contact": {"telegram": "http://t.me/fffkreisherford", "whatsapp": "https://chat.whatsapp.com/ItdxFcwCOOSHLghoenWstZ"}},
{"title": "Herne", "state": "active", "location": {"lat": 51.5380394, "lng": 7.219985}, "contact": {"whatsapp": "https://chat.whatsapp.com/IFeTaAxMfNM1WCFARm4CEi"}},
{"title": "Hiddenhausen", "state": "active", "location": {"lat": 52.1530879, "lng": 8.6394715}, "contact": {"whatsapp": "https://chat.whatsapp.com/GtZvD5O1CT27lq5Sk4MQut"}},
{"title": "Hilden", "state": "active", "location": {"lat": 51.1674417, "lng": 6.9307271}, "contact": {"whatsapp": "https://chat.whatsapp.com/GX6N3QwtP8o3H7GNZkPu8g"}},
{"title": "Hochneukirch", "state": "active", "location": {"lat": 51.0985967, "lng": 6.4568083}, "contact": {"whatsapp": "https://chat.whatsapp.com/HsiyMevbWhb89qsMY2uXpL"}},
{"title": "H\u00f6xter", "state": "active", "location": {"lat": 51.7747369, "lng": 9.3816877}, "contact": {"whatsapp": "https://chat.whatsapp.com/GVUH91CDbq3EZC50ZbUhMl"}},
{"title": "H\u00fcnxe", "state": "active", "location": {"lat": 51.6414581, "lng": 6.7660319}, "contact": {"whatsapp": "https://chat.whatsapp.com/DnyaT5x1IGAI7rYkp5dJvC"}},
{"title": "H\u00fcrth", "state": "active", "location": {"lat": 50.8807379, "lng": 6.876568}, "contact": {"whatsapp": "https://chat.whatsapp.com/KXKqMZXgbYe8wtI3aoC8Qn"}},
{"title": "Ibbenb\u00fcren", "state": "active", "location": {"lat": 52.2774772, "lng": 7.7151417}, "contact": {"whatsapp": "https://chat.whatsapp.com/BschuoHwLeF0rmmdDCKn0x"}},
{"title": "Iserlohn", "state": "active", "location": {"lat": 51.3746778, "lng": 7.6999713}, "contact": {"whatsapp": "https://chat.whatsapp.com/Biz3S1MMqQ04tVcBQim6Gr"}},
{"title": "J\u00fclich", "state": "active", "location": {"lat": 50.9220931, "lng": 6.3611015}, "contact": {"whatsapp": "https://chat.whatsapp.com/DrCO6OiePCS7dDK7crdoHJ"}},
{"title": "Kamen", "state": "active", "location": {"lat": 51.5918019, "lng": 7.6616804}, "contact": {"whatsapp": "https://chat.whatsapp.com/GzqKcEpYPlM7ODJ1Scqln4"}},
{"title": "Kempen", "state": "active", "location": {"lat": 51.0933769, "lng": 6.1005432}, "contact": {"whatsapp": "https://chat.whatsapp.com/EsHKBfcq3US1gM8l36SCB5"}},
{"title": "Kerpen", "state": "active", "location": {"lat": 50.8696345, "lng": 6.694734}, "contact": {"whatsapp": "https://chat.whatsapp.com/E3onHvL1oFH2vkUTSTzBEu"}},
{"title": "Kierspe", "state": "active", "location": {"lat": 51.1365935, "lng": 7.5871946}, "contact": {"whatsapp": "https://chat.whatsapp.com/BzAvOzObAy9K2LyvcoQMt4"}},
{"title": "Kleinenbroich", "state": "active", "location": {"lat": 51.1987272, "lng": 6.5563114}, "contact": {"whatsapp": "https://chat.whatsapp.com/C8leyHCO6mL8gpDdONA7HT"}},
{"title": "Kleve", "state": "active", "location": {"lat": 51.7854839, "lng": 6.13136741533014}, "contact": {"whatsapp": "https://chat.whatsapp.com/E1lDa9BMafHAfXqa2zrEJe", "email": "Kleve@fridaysforfuture.de"}},
{"title": "Krefeld", "state": "active", "location": {"lat": 51.3331205, "lng": 6.5623343}, "contact": {"telegram": "https://t.me/joinchat/AxZE-A-si5WLdu-E9AbsIw", "whatsapp": "https://chat.whatsapp.com/JIdNJDLfjOqCOt8fJHZ0LF"}},
{"title": "Kreuztal", "state": "active", "location": {"lat": 50.9598627, "lng": 7.9896202}, "contact": {"whatsapp": "https://chat.whatsapp.com/FmwTAwfRJSp6nJv4XCPIWc"}},
{"title": "K\u00f6ln", "state": "active", "location": {"lat": 50.938361, "lng": 6.959974}, "contact": {"telegram": "https://t.me/fridaysforfuturekoeln", "whatsapp": "https://chat.whatsapp.com/BqLJWHMOx4aBUpJ626gXPW", "whatsapp studierende": "https://chat.whatsapp.com/FCYExXjFw3tEtLDTbN08Cp", "email": "fridaysforfuturekoeln@riseup.net"}},
{"title": "K\u00f6nigswinter", "state": "active", "location": {"lat": 50.6761759, "lng": 7.1935237}, "contact": {"whatsapp": "https://chat.whatsapp.com/LAmkTHZkKZKJSEouoOXnw2"}},
{"title": "Langenfeld", "state": "active", "location": {"lat": 51.1008952, "lng": 6.9459377}, "contact": {"whatsapp": "https://chat.whatsapp.com/G8uGjGUKFNYLO479cxtswR"}},
{"title": "Lemgo", "state": "active", "location": {"lat": 52.0280674, "lng": 8.9012894}, "contact": {"whatsapp": "https://chat.whatsapp.com/BoS3cKixogHDPC2tVWRiKb"}},
{"title": "Leverkusen", "state": "active", "location": {"lat": 51.0324743, "lng": 6.9881194}, "contact": {"whatsapp": "https://chat.whatsapp.com/BIyJxlQ4fRn1SM79JYJ7cL"}},
{"title": "Lippstadt", "state": "active", "location": {"lat": 51.6747074, "lng": 8.347194}, "contact": {"whatsapp": "https://chat.whatsapp.com/Juj3c6qQ6DvANavIZEkgBK"}},
{"title": "Lohne", "state": "active", "location": {"lat": 51.6783925, "lng": 8.7093703}, "contact": {"whatsapp": "https://chat.whatsapp.com/ItdxFcwCOOSHLghoenWstZ"}},
{"title": "L\u00fcdinghausen", "state": "active", "location": {"lat": 51.7717757, "lng": 7.444639}, "contact": {"whatsapp": "https://chat.whatsapp.com/In42rjfqHRG66uaoXmT0wL"}},
{"title": "L\u00fcdenscheid", "state": "active", "location": {"lat": 51.218116, "lng": 7.6395513}, "contact": {"whatsapp": "https://chat.whatsapp.com/Kyr0369S10yBsiptkKjJG8"}},
{"title": "L\u00fcnen", "state": "active", "location": {"lat": 51.6142482, "lng": 7.5228088}, "contact": {"whatsapp": "https://chat.whatsapp.com/Ey08W9o7Mtu9f0eMVhmqCT"}},
{"title": "Marl", "state": "active", "location": {"lat": 49.74, "lng": 3.7713889}, "contact": {"whatsapp": "https://chat.whatsapp.com/EYixveMTN1wA0XvLNA5lJT"}},
{"title": "Menden", "state": "active", "location": {"lat": 51.43779, "lng": 7.7953822}, "contact": {"whatsapp": "https://chat.whatsapp.com/Do6wqkkRLgVHC2tH3rXqiL"}},
{"title": "Mettmann", "state": "active", "location": {"lat": 51.2527778, "lng": 6.9777778}, "contact": {"whatsapp": "https://chat.whatsapp.com/GDTqfWGQ38KImKmjb9pTkw"}},
{"title": "Minden", "state": "active", "location": {"lat": 52.2881045, "lng": 8.9168852}, "contact": {"telegram": "https://t.me/FFFMinden", "whatsapp": "https://chat.whatsapp.com/LDFpO7ffCDy9Gl07XBk93b", "email": "orga@fffminden.de"}},
{"title": "Moers", "state": "active", "location": {"lat": 51.451283, "lng": 6.62843}, "contact": {"whatsapp": "https://chat.whatsapp.com/DGqOFGI9gXBGVZbgmopmSy"}},
{"title": "M\u00f6nchengladbach", "state": "active", "location": {"lat": 51.1946983, "lng": 6.4353641}, "contact": {"whatsapp": "https://chat.whatsapp.com/LMlnqkR5wcI3G73nWMsAcF", "email": "moenchengladbach@fridaysforfuture.de"}},
{"title": "Monschau", "state": "active", "location": {"lat": 50.55306105, "lng": 6.26310217801016}, "contact": {"whatsapp": "https://chat.whatsapp.com/Dqn5vygoaZDI014pGrIanu"}},
{"title": "M\u00fclheim", "state": "active", "location": {"lat": 51.4272925, "lng": 6.8829192}, "contact": {"whatsapp": "https://chat.whatsapp.com/K5GAzncXAX3LGa1w4b1Y2a"}},
{"title": "M\u00fcnster", "state": "active", "location": {"lat": 51.9501317, "lng": 7.61330165026119}, "contact": {"telegram": "https://t.me/fff_muenster", "whatsapp": "https://rebrand.ly/whatsapp-fffMSigr", "facebook studierende": "https://www.facebook.com/studentsforfuture.ms/", "email": "muenster@fridaysforfuture.de"}},
{"title": "Neheim", "state": "active", "location": {"lat": 51.453022, "lng": 7.9607716}, "contact": {"whatsapp": "https://chat.whatsapp.com/Laon7VDYsNXHKghhUr0RUE"}},
{"title": "Neukirchen Vluyn", "state": "active", "location": {"lat": 51.4413742, "lng": 6.5467641}, "contact": {"whatsapp": "https://chat.whatsapp.com/IS0v5P6HdBw5mXjvhIXFWL"}},
{"title": "Neuss", "state": "active", "location": {"lat": 51.1981778, "lng": 6.6916476}, "contact": {"whatsapp": "https://chat.whatsapp.com/JDAi4vH2kdu5RIEBXJIjGO"}},
{"title": "Nottuln", "state": "active", "location": {"lat": 51.9302473, "lng": 7.3533869}, "contact": {"whatsapp": "https://chat.whatsapp.com/EIevchGyZrH9ZC3PN8yUXz"}},
{"title": "Oberbergischer Kreis", "state": "active", "location": {"lat": 51.0128184, "lng": 7.5179457}, "contact": {"whatsapp": "https://chat.whatsapp.com/DWxj8DzhD1xGEtSFyyEt7C"}},
{"title": "Oberhausen", "state": "active", "location": {"lat": 51.51399325, "lng": 6.84932276128192}, "contact": {"whatsapp": "https://chat.whatsapp.com/GcmFjEHB8N5HBqWJd82VK4", "email": "oberhausen@fridaysforfuture.de"}},
{"title": "Olpe", "state": "active", "location": {"lat": 51.0297603, "lng": 7.8424193}, "contact": {"whatsapp": "https://chat.whatsapp.com/FLsX7NWQofL74cJBRTSUlQ"}},
{"title": "Paderborn", "state": "active", "location": {"lat": 51.71895955, "lng": 8.76486977817756}, "contact": {"whatsapp": "https://chat.whatsapp.com/CmN3Gj44h0rLUKk4HS5ICj"}},
{"title": "Plettenberg", "state": "active", "location": {"lat": 51.2136798, "lng": 7.8745627}, "contact": {"whatsapp": "https://chat.whatsapp.com/FzOHOMdQwDJ4qXUDSqKNKb"}},
{"title": "Ratingen", "state": "active", "location": {"lat": 51.2973261, "lng": 6.8493503}, "contact": {"whatsapp": "https://chat.whatsapp.com/BHF9R1P0XP1DePKrjReYyS"}},
{"title": "Recklinghausen", "state": "active", "location": {"lat": 51.6143815, "lng": 7.1978546}, "contact": {"whatsapp": "https://chat.whatsapp.com/KCts8mHfpLbDDmas9K5YTl"}},
{"title": "Rheinbach", "state": "active", "location": {"lat": 50.6256808, "lng": 6.9491436}, "contact": {"whatsapp": "https://chat.whatsapp.com/JjF0tE9CCjSIGojvIIrlj2"}},
{"title": "Rheine", "state": "active", "location": {"lat": 52.2797707, "lng": 7.4373615}, "contact": {"whatsapp": "https://chat.whatsapp.com/Ifla1N739wY0GVW4yOY2wF"}},
{"title": "Rheinisch-Bergischer Kreis", "state": "active", "location": {"lat": 51.0350162, "lng": 7.1726234}, "contact": {"whatsapp": "https://chat.whatsapp.com/Lbw2EbvAuXgI7E2f1VopLc"}},
{"title": "Rhein-Sieg-Kreis", "state": "active", "location": {"lat": 50.752824, "lng": 7.38138057169842}, "contact": {"whatsapp": "https://chat.whatsapp.com/LFRZLWa62cZ84GUsJsyymb"}},
{"title": "R\u00f6srath", "state": "active", "location": {"lat": 50.8963758, "lng": 7.1825445}, "contact": {"telegram": "https://t.me/joinchat/Jd834ROhsd045qFLhkKT7A", "whatsapp": "https://chat.whatsapp.com/D6bmj0SlnNICFa1tzIplx8"}},
{"title": "Schleiden", "state": "active", "location": {"lat": 50.5285919, "lng": 6.4761556}, "contact": {"whatsapp": "https://chat.whatsapp.com/BtYY1Q0qm2WH9htL9DOZfJ"}},
{"title": "Selm", "state": "active", "location": {"lat": 51.7005549, "lng": 7.468614}, "contact": {"whatsapp": "https://chat.whatsapp.com/HXmR37J3Wz03InczQ918Jv"}},
{"title": "Siegen", "state": "active", "location": {"lat": 50.8749804, "lng": 8.0227233}, "contact": {"whatsapp": "https://chat.whatsapp.com/GAtM0BWUsJUGfuVm9CyRbV"}},
{"title": "Solingen", "state": "active", "location": {"lat": 51.1712468, "lng": 7.0838996}, "contact": {"whatsapp": "https://chat.whatsapp.com/E93fm39UC5w8jzRARbOeCm"}},
{"title": "Soest", "state": "active", "location": {"lat": 51.5725501, "lng": 8.1061259}, "contact": {"whatsapp": "https://chat.whatsapp.com/DLFFU3VQok89c3x6Nporm4"}},
{"title": "Steinfurt", "state": "active", "location": {"lat": 52.1294289, "lng": 7.3903454}, "contact": {"whatsapp": "https://chat.whatsapp.com/Epxs9h2loRUFpeeneKZ84E"}},
{"title": "Unna", "state": "active", "location": {"lat": 51.5348835, "lng": 7.689014}, "contact": {"whatsapp": "https://chat.whatsapp.com/D8IssNKuojoA1d98K2vWK3"}},
{"title": "Velbert", "state": "active", "location": {"lat": 51.3406713, "lng": 7.0439912}, "contact": {"whatsapp": "https://chat.whatsapp.com/DBpeoXepx4e8K5zdVv6Ez1"}},
{"title": "Versmold", "state": "active", "location": {"lat": 52.0416747, "lng": 8.1493878}, "contact": {"whatsapp": "https://chat.whatsapp.com/LapeU0UVvlk7R3aXU88rVw"}},
{"title": "Viersen", "state": "active", "location": {"lat": 51.2562118, "lng": 6.3905476}, "contact": {"whatsapp": "https://chat.whatsapp.com/H2C6rVudQ3xIzYESjtaQR3"}},
{"title": "Warendorf", "state": "active", "location": {"lat": 51.9532449, "lng": 7.9912335}, "contact": {"whatsapp": "https://chat.whatsa\npp.com/G9KMMM9zfLU5lLOya6YaIg"}},
{"title": "Waldbr\u00f6l", "state": "active", "location": {"lat": 50.8751813, "lng": 7.6159479}, "contact": {"whatsapp": "https://chat.whatsapp.com/F4xaNWAaDcq9YSEObMbbVp"}},
{"title": "Wegberg", "state": "active", "location": {"lat": 51.1423588, "lng": 6.2776865}, "contact": {"whatsapp": "https://chat.whatsapp.com/GXFLZpD4y9Q6LKizcjIDbg"}},
{"title": "Wermelskirchen", "state": "active", "location": {"lat": 51.1406481, "lng": 7.2156901}, "contact": {"whatsapp": "https://chat.whatsapp.com/EikdhplNRQW0e1zh6PKFRm"}},
{"title": "Wesel", "state": "active", "location": {"lat": 51.6561632, "lng": 6.6271721}, "contact": {"whatsapp": "https://chat.whatsapp.com/FvIx4kVFvUsEsAqdJiO9i3"}},
{"title": "Willich", "state": "active", "location": {"lat": 51.2641433, "lng": 6.5446958}, "contact": {"whatsapp": "https://chat.whatsapp.com/HAVwhtAZwF4E8LrHcDmBDW"}},
{"title": "Witten", "state": "active", "location": {"lat": 51.4370171, "lng": 7.335124}, "contact": {"whatsapp": "https://chat.whatsapp.com/KUMACF4Kd2YDokLKjPnwYK"}},
{"title": "W\u00fclfrath", "state": "active", "location": {"lat": 51.2818569, "lng": 7.0328063}, "contact": {"whatsapp": "https://chat.whatsapp.com/Ff3b7BVa8Xz6VgPlCuMh4A"}},
{"title": "Wuppertal/Remscheid/Solingen", "state": "active", "location": {"lat": 51.2393773, "lng": 7.1103619693186}, "contact": {"whatsapp": "https://chat.whatsapp.com/GVJzBKNhZWIIZ6bE4lrCE4", "email": "wuppertal@fridaysforfuture.de"}},
{"title": "Xanten", "state": "active", "location": {"lat": 51.661519, "lng": 6.4543203}, "contact": {"telegram": "https://t.me/joinchat/Jz4_LBQhvVs6932W5r7djQ", "whatsapp": "https://chat.whatsapp.com/LCWfy9bC9eb4sfzimlgMRE"}},
{"title": "Z\u00fclpich", "state": "active", "location": {"lat": 50.6922278, "lng": 6.6472694}, "contact": {"whatsapp": "https://chat.whatsapp.com/HkIoEMoxTtAI25hFujuqez"}},
{"title": "Rheinland-Pfalz", "state": "active", "location": {"lat": 49.7497346, "lng": 7.4396553}, "contact": {"whatsapp": "https://chat.whatsapp.com/CGE8AWNIEcPKvvC2unnPlm"}},
{"title": "Alzey", "state": "active", "location": {"lat": 49.7455695, "lng": 8.1150946}, "contact": {"whatsapp": "https://chat.whatsapp.com/HgIVx8OkHSPCykZaoNEcLK"}},
{"title": "Bad Sobernheim", "state": "active", "location": {"lat": 49.7843963, "lng": 7.6520457}, "contact": {"whatsapp": "https://chat.whatsapp.com/CNkUBLdsmJbKyMV8V30IJs"}},
{"title": "Bernkastel-Kues", "state": "active", "location": {"lat": 49.9157398, "lng": 7.0708181}, "contact": {"whatsapp": "https://chat.whatsapp.com/GcPasLkkNdm6RSOoCeIeVh"}},
{"title": "Bingen am Rhein", "state": "active", "location": {"lat": 49.9667, "lng": 7.9}, "contact": {"whatsapp": "https://chat.whatsapp.com/GKoyguT0GSp3MJhQ9B25tU"}},
{"title": "Birkenfeld", "state": "active", "location": {"lat": 49.6488236, "lng": 7.1647477}, "contact": {"whatsapp": "https://chat.whatsapp.com/LvoDZCUfIwtD6wJR3yIJDE"}},
{"title": "Bitburg", "state": "active", "location": {"lat": 49.9732762, "lng": 6.524947}, "contact": {"whatsapp": "https://chat.whatsapp.com/Guwpn0lBqQDJztDCaJwm9x"}},
{"title": "Boppard", "state": "active", "location": {"lat": 50.2312823, "lng": 7.5885884}, "contact": {"whatsapp": "https://chat.whatsapp.com/GjGTeTc8xMT4beIaMZqMfe"}},
{"title": "Dierdorf", "state": "active", "location": {"lat": 50.5478886, "lng": 7.6564407}, "contact": {"whatsapp": "https://chat.whatsapp.com/LL58E2zv7rc2soY05j5yJk"}},
{"title": "Edenkoben", "state": "active", "location": {"lat": 49.282236, "lng": 8.1284357}, "contact": {"telegram": "https://t.me/joinchat/Mi05-hdoxW1T-bUthBP9jQ"}},
{"title": "Emmelshausen", "state": "active", "location": {"lat": 50.1557618, "lng": 7.5557802}, "contact": {"whatsapp": "https://chat.whatsapp.com/EN1Fdz3Fh3r4dCuPd9U6SN"}},
{"title": "Frankenthal", "state": "active", "location": {"lat": 49.5445804, "lng": 8.3540061}, "contact": {"whatsapp": "https://chat.whatsapp.com/LkqYVy4N1B96y1IlvLWfUI", "email": "fridaysforfuture.ft@gmail.com"}},
{"title": "Idar-Oberstein", "state": "active", "location": {"lat": 49.7106197, "lng": 7.313321}, "contact": {"whatsapp": "https://chat.whatsapp.com/CxM0qsu3Zk360RPVvjslyL"}},
{"title": "Ingelheim", "state": "active", "location": {"lat": 49.9760129, "lng": 8.0532128}, "contact": {"whatsapp ": "https://chat.whatsapp.com/F5nXMzFl3eb2K6DtNq5vZO", "telegram": "https://t.me/joinchat/Cko0RlXvfINduZCVAb21YA"}},
{"title": "Kaiserslautern", "state": "active", "location": {"lat": 49.4432174, "lng": 7.7689951}, "contact": {"whatsapp": "https://chat.whatsapp.com/GnGvOpgOgk0FJfPsmVhXbv"}},
{"title": "Koblenz", "state": "active", "location": {"lat": 50.3533278, "lng": 7.5943951}, "contact": {"whatsapp": "https://chat.whatsapp.com/BophzqFb3P48a7rjp3nQj1"}},
{"title": "Kusel", "state": "active", "location": {"lat": 49.5399844, "lng": 7.4008479}, "contact": {"whatsapp": "https://chat.whatsapp.com/DUGwl6nrN7t9urw5mclNiv"}},
{"title": "Landau in der Pfalz", "state": "active", "location": {"lat": 49.1982825, "lng": 8.1123441}, "contact": {"telegram": "https://t.me/FFFLDInfo", "whatsapp": "https://chat.whatsapp.com/H0HW72PpRQi6URmGK4RgFJ"}},
{"title": "Ludwigshafen", "state": "active", "location": {"lat": 49.4704113, "lng": 8.4381568}, "contact": {"whatsapp": "https://chat.whatsapp.com/EWjCkYVc2FL8gcY7wQ5Sro"}},
{"title": "Mainz", "state": "active", "location": {"lat": 50.0012314, "lng": 8.2762513}, "contact": {"whatsapp": "https://chat.whatsapp.com/G7eEO3FUo9r6UHweLyIo7e"}},
{"title": "Montabaur", "state": "active", "location": {"lat": 50.4362219, "lng": 7.8302494}, "contact": {"whatsapp": "https://chat.whatsapp.com/Gs50dPD9NMnJi7lOCThrLC"}},
{"title": "Neustadt an der Weinstra\u00dfe", "state": "active", "location": {"lat": 49.3539802, "lng": 8.1350021}, "contact": {"whatsapp": "https://chat.whatsapp.com/GDnvJRXmLaj5YT7wfZBi0E", "email": "Neustadt.weinstrasse@fridaysforfuture.de"}},
{"title": "Neuwied", "state": "active", "location": {"lat": 50.4302589, "lng": 7.4663112}, "contact": {"whatsapp": "https://chat.whatsapp.com/Ikc5YL9IRvL7pDTPd7erwI"}},
{"title": "Pirmasens", "state": "active", "location": {"lat": 49.1876453, "lng": 7.592068874111}, "contact": {"whatsapp": "https://chat.whatsapp.com/EE2ky7IVoeC9gi42zJEhFz"}},
{"title": "Saarpfalz", "state": "active", "location": {"lat": 49.2613761, "lng": 7.19823158985527}, "contact": {"whatsapp": "https://chat.whatsapp.com/Fa6AzE2rwMkAKiPNnVvInh"}},
{"title": "Schifferstadt", "state": "active", "location": {"lat": 49.3865528, "lng": 8.3739745}, "contact": {"whatsapp": "https://chat.whatsapp.com/ChjN1fZ9aba5nLgu9E2Itq"}},
{"title": "Simmern", "state": "active", "location": {"lat": 49.9834956, "lng": 7.5260197}, "contact": {"whatsapp": "https://chat.whatsapp.com/FgWYZJT2D1VJIYBhY2AHzW"}},
{"title": "Sinzig", "state": "active", "location": {"lat": 50.5452042, "lng": 7.2490828}, "contact": {"whatsapp": "https://chat.whatsapp.com/KTO9HidSUlg4pAAha5duyN"}},
{"title": "Speyer", "state": "active", "location": {"lat": 49.3165553, "lng": 8.433615}, "contact": {"telegram": "https://t.me/joinchat/Jx17ORXOURXIRC2Qy0yN6g", "email": "fff.speyer@online.de"}},
{"title": "Trier", "state": "active", "location": {"lat": 49.7596208, "lng": 6.6441878}, "contact": {"whatsapp": "https://chat.whatsapp.com/KymD8nyyn2XHbQQSFmNG1o"}},
{"title": "Worms", "state": "active", "location": {"lat": 49.6352685, "lng": 8.3603088}, "contact": {"whatsapp": "https://chat.whatsapp.com/F0iIu8bExE2FYZhSno8n7z"}},
{"title": "Zweibr\u00fccken", "state": "active", "location": {"lat": 49.2535955, "lng": 7.37062743737628}, "contact": {"whatsapp": "https://chat.whatsapp.com/Fy2FRwUYQKoG3m8rtweE7b"}},
{"title": "Saarland (Saarbr\u00fccken)", "state": "active", "location": {"lat": 49.234362, "lng": 6.996379}, "contact": {"whatsapp": "https://chat.whatsapp.com/LT1IeE4r5rdLinyeFdPanW", "whatsapp studierende": "https://chat.whatsapp.com/C10ry7uC9SPAXtXChBAz90"}},
{"title": "Blieskastel", "state": "active", "location": {"lat": 49.2370918, "lng": 7.2599036}, "contact": {"whatsapp": "https://chat.whatsapp.com/GZeaVjwJjGq8fZdlJwaiib"}},
{"title": "Freital", "state": "active", "location": {"lat": 51.016265, "lng": 13.6530329}, "contact": {"telegram": "https://t.me/joinchat/Bt8HsA04IB31eaB1lC-tnw"}},
{"title": "Homburg", "state": "active", "location": {"lat": 47.758716, "lng": 7.5063314}, "contact": {"whatsapp": "https://chat.whatsapp.com/DE7fxbjo5vEFKRaBQyq14H"}},
{"title": "Merzig-Wadern", "state": "active", "location": {"lat": 49.4427023, "lng": 6.6374902}, "contact": {"whatsapp": "https://chat.whatsapp.com/IKjshIJo8AW8rFhf5XzhaJ"}},
{"title": "Neunkirchen", "state": "active", "location": {"lat": 49.3533493, "lng": 6.5564888}, "contact": {"whatsapp": "https://chat.whatsapp.com/DH85KV5DwSo6VYkwYUKY9K", "email": "neunkirchen@fridaysforfuture.de"}},
{"title": "Saarlouis", "state": "active", "location": {"lat": 49.3164661, "lng": 6.749846}, "contact": {"whatsapp": "https://chat.whatsapp.com/CIDxcmgH76KIm35BURQyED"}},
{"title": "Saarpfalz", "state": "active", "location": {"lat": 49.2613761, "lng": 7.19823158985527}, "contact": {"whatsapp": "https://chat.whatsapp.com/Fa6AzE2rwMkAKiPNnVvInh"}},
{"title": "St. Ingbert", "state": "active", "location": {"lat": 49.2788369, "lng": 7.1158276}, "contact": {"whatsapp": "https://chat.whatsapp.com/GijfEv77nmt8OuF05FCxlX"}},
{"title": "St. Wendel", "state": "active", "location": {"lat": 49.4669906, "lng": 7.1696192}, "contact": {"whatsapp": "https://chat.whatsapp.com/HKvbGdkkbznI58jupWHYA7"}},
{"title": "V\u00f6lklingen", "state": "active", "location": {"lat": 49.2522866, "lng": 6.859519}, "contact": {"whatsapp": "https://chat.whatsapp.com/GMmSs0dsgHK8zHAo2kJFkI"}},
{"title": "Sachsen", "state": "active", "location": {"lat": 50.9295798, "lng": 13.4585052}, "contact": {"telegram": "https://t.me/fffsachsen", "whatsapp": "https://chat.whatsapp.com/JGSusq5ZvDaKuXimcujFvz"}},
{"title": "Annaberg-Buchholz", "state": "active", "location": {"lat": 50.5788781, "lng": 13.0106108}, "contact": {"whatsapp": "https://chat.whatsapp.com/KE6xAigy3uyJtjYAzBReb8"}},
{"title": "Bad Schandau", "state": "active", "location": {"lat": 50.918091, "lng": 14.1534018}, "contact": {"whatsapp": "https://chat.whatsapp.com/BbZMUQr1tjSGF4OFLUdVbP"}},
{"title": "Bautzen", "state": "active", "location": {"lat": 51.1813907, "lng": 14.4275735}, "contact": {"whatsapp": "https://chat.whatsapp.com/EFewP8U1gD70aujXZpQ07I"}},
{"title": "Chemnitz", "state": "active", "location": {"lat": 50.8322608, "lng": 12.9252977}, "contact": {"whatsapp": "https://chat.whatsapp.com/G2jWQ0ebKF86pJWpiWzxwN"}},
{"title": "Dresden", "state": "active", "location": {"lat": 51.0493286, "lng": 13.7381437}, "contact": {"telegram": "https://t.me/infos_fffdresden", "whatsapp": "https://chat.whatsapp.com/JDUgkrHnO7hJQDzWaQb5iG", "email": "dresden@fridaysforfuture.de"}},
{"title": "Grimma", "state": "active", "location": {"lat": 51.2383379, "lng": 12.7287511}, "contact": {"whatsapp": "http:// https://chat.whatsapp.com/DCkt1s7KdMg8Az2oFEHki1"}},
{"title": "Leipzig", "state": "active", "location": {"lat": 51.3406321, "lng": 12.3747329}, "contact": {"telegram": "https://t.me/joinchat/DxrwPk8YE7BK8nMOicCKlA", "whatsapp": "https://chat.whatsapp.com/Gha2iUVPE3NDelt5P91cOA", "email": "leipzig@fridaysforfuture.de"}},
{"title": "Mittweida", "state": "active", "location": {"lat": 50.9854597, "lng": 12.9810458}, "contact": {"telegram": "https://t.me/joinchat/GsL58EzD0ygQCDjMdNfvjA"}},
{"title": "Wurzen", "state": "active", "location": {"lat": 51.3709574, "lng": 12.7410574}, "contact": {"whatsapp": "https://chat.whatsapp.com/D5GrHBivJpTKvFatbM7Xsu"}},
{"title": "Zittau", "state": "active", "location": {"lat": 50.8959142, "lng": 14.8064417}, "contact": {"whatsapp": "https://chat.whatsapp.com/FFEBVTJEJolJvrORSdVTN4"}},
{"title": "Zwickau", "state": "active", "location": {"lat": 50.7185043, "lng": 12.4939267}, "contact": {"whatsapp": "https://chat.whatsapp.com/LgFmeyAxAAyKt6P8jBVkOp", "email": "zwickau@fridaysforfuture.de"}},
{"title": "Sachsen-Anhalt", "state": "active", "location": {"lat": 51.908526, "lng": 11.4939134}, "contact": {"telegram": "http:// https://t.me/joinchat/EYIUPQu4CUclv7DaKIv3Kw", "whatsapp": "https://chat.whatsapp.com/KgyjriuHW3J8qZnL9TWBFA"}},
{"title": "Anhalt-Bitterfeld", "state": "active", "location": {"lat": 51.8167973, "lng": 12.0105195488228}, "contact": {"whatsapp": "https://chat.whatsapp.com/EjXwxVmz0tJI5ii5KqBkqI"}},
{"title": "Aschersleben", "state": "active", "location": {"lat": 51.7559549, "lng": 11.462134}, "contact": {"whatsapp": "https://chat.whatsapp.com/IfdwRoRpiNH9PgRQiyc1zj"}},
{"title": "Dessau-Ro\u00dflau", "state": "active", "location": {"lat": 51.8311104, "lng": 12.2429261}, "contact": {"whatsapp": "https://chat.whatsapp.com/FwKWj4g9KsE0TAKdsldXZD"}},
{"title": "Halle (Saale)", "state": "active", "location": {"lat": 51.4825041, "lng": 11.9705452}, "contact": {"telegram": "https://t.me/fffhalle", "whatsapp": "https://chat.whatsapp.com/FIheehZinZm9CQiKQdBs1L"}},
{"title": "Jerichower Land", "state": "active", "location": {"lat": 52.2598284, "lng": 11.9890582}, "contact": {"whatsapp": "https://chat.whatsapp.com/GBW7BSXvcIVC6wMNxtMX8p"}},
{"title": "Lutherstadt Wittenberg", "state": "active", "location": {"lat": 51.8666527, "lng": 12.646761}, "contact": {"whatsapp": "https://chat.whatsapp.com/F9mPb6IfKfN8iFWh7GkEJk"}},
{"title": "Mansfeld S\u00fcdharz", "state": "active", "location": {"lat": 51.5347688, "lng": 11.3348724075865}, "contact": {"whatsapp": "https://chat.whatsapp.com/FMRc4FQgZJJ8I4mUBRF7EH"}},
{"title": "Magdeburg", "state": "active", "location": {"lat": 52.1315889, "lng": 11.6399609}, "contact": {"whatsapp": "https://chat.whatsapp.com/Eo8MUWGtANXI2RuBO2pS0L"}},
{"title": "Naumburg", "state": "active", "location": {"lat": 51.1525648, "lng": 11.8099186}, "contact": {"telegram": "https://t.me/joinchat/J1IleEm2SiPW1I65PziGMw", "whatsapp": "https://chat.whatsapp.com/EI9bKhtS6nk2okUR2JRMH4"}},
{"title": "Osterburg", "state": "active", "location": {"lat": 52.7899044, "lng": 11.7526038}, "contact": {"whatsapp": "https://chat.whatsapp.com/KrRaBNc0h3sLpkr9TpmkRt"}},
{"title": "Quedlinburg", "state": "active", "location": {"lat": 51.7855428, "lng": 11.1519933}, "contact": {"whatsapp": "https://chat.whatsapp.com/Izydljwld9dKLGhwf0HxXc"}},
{"title": "Salzwedel", "state": "active", "location": {"lat": 52.8528456, "lng": 11.1539699}, "contact": {"whatsapp": "https://chat.whatsapp.com/BtUTYRjAcAkFrNYD9FH5Hr", "telegram": "http://t.me/fffsalzwedel_info"}},
{"title": "Schleswig-Holstein", "state": "active", "location": {"lat": 54.1853998, "lng": 9.8220089}, "contact": {"whatsapp": "https://chat.whatsapp.com/BH6EHh3zUQj25XyEhbO8Th"}},
{"title": "Ahrensburg", "state": "active", "location": {"lat": 53.6736529, "lng": 10.2358999}, "contact": {"whatsapp": "https://chat.whatsapp.com/JZ9UCNbyfIj2dbfOzZjkwm"}},
{"title": "Altenholz", "state": "active", "location": {"lat": 54.3993257, "lng": 10.1237852}, "contact": {"whatsapp": "https://chat.whatsapp.com/C3OJ9k5hF41AHxfEVtq49x"}},
{"title": "Bad Oldesloe", "state": "active", "location": {"lat": 53.8096562, "lng": 10.3733692}, "contact": {"whatsapp": "https://chat.whatsapp.com/B4jk6aafLNB1OBua56Og5c"}},
{"title": "Bad Segeberg", "state": "active", "location": {"lat": 53.9366878, "lng": 10.3042377}, "contact": {"whatsapp": "https://chat.whatsapp.com/KFIbQv0wkSaJLxEAP3WfeC"}},
{"title": "Bargteheide", "state": "active", "location": {"lat": 53.7279671, "lng": 10.2618075}, "contact": {"whatsapp": "https://chat.whatsapp.com/HMz28C7aP3kHvzi2vyqWGi"}},
{"title": "Brunsb\u00fcttel", "state": "active", "location": {"lat": 53.8972549, "lng": 9.1395423}, "contact": {"whatsapp": "https://chat.whatsapp.com/ByatPoWg11lGoREBZCNnJC"}},
{"title": "B\u00fcchen", "state": "active", "location": {"lat": 53.4833029, "lng": 10.6166958}, "contact": {"whatsapp": "https://chat.whatsapp.com/DcqEKTj8cgXBn6ReLV5WRp"}},
{"title": "Elmshorn", "state": "active", "location": {"lat": 53.7532486, "lng": 9.6524559}, "contact": {"whatsapp": "https://chat.whatsapp.com/Ei466pVDEbg9q2MWMfiAkw"}},
{"title": "Eutin", "state": "active", "location": {"lat": 54.1364642, "lng": 10.6159077}, "contact": {"telegram": "http://t.me/FFF_Eutin", "whatsapp": "https://chat.whatsapp.com/EQbtnsWA0GNBEpQo1l86NL", "email": "eutin@fridaysforfuture.de"}},
{"title": "Fehmarn", "state": "active", "location": {"lat": 54.4687375, "lng": 11.1340848379117}, "contact": {"whatsapp": "https://chat.whatsapp.com/Db8a6gBxD21I0NUofWyqcm"}},
{"title": "Flensburg", "state": "active", "location": {"lat": 54.7833021, "lng": 9.4333264}, "contact": {"whatsapp": "https://chat.whatsapp.com/Db8a6gBxD21I0NUofWyqcm", "instagram": "https://instagram.com/fridaysforfuture_flensburg"}},
{"title": "Heide", "state": "active", "location": {"lat": 54.1948456, "lng": 9.0929015}, "contact": {"whatsapp": "https://chat.whatsapp.com/IJJs1SGlX8q0wWv3jps7X3"}},
{"title": "Henstedt-Ulzburg", "state": "active", "location": {"lat": 53.7926888, "lng": 9.9808134}, "contact": {"whatsapp": "https://chat.whatsapp.com/CSAzDVgFJk40Sa5qx4KCut"}},
{"title": "Husum", "state": "active", "location": {"lat": 54.4853638, "lng": 9.0538156}, "contact": {"whatsapp": "https://chat.whatsapp.com/IwEACXaDIFpAtEvfx2KOO9"}},
{"title": "Itzehoe", "state": "active", "location": {"lat": 53.9250316, "lng": 9.5155854}, "contact": {"whatsapp": "https://chat.whatsapp.com/ICk5vmVbg8TLZ1XUsHzugH"}},
{"title": "Kaltenkirchen", "state": "active", "location": {"lat": 53.8371714, "lng": 9.9614889}, "contact": {"whatsapp": "https://chat.whatsapp.com/JsdrtqKNDFYLPYxlXbyptJ"}},
{"title": "Kiel", "state": "active", "location": {"lat": 54.3227085, "lng": 10.135555}, "contact": {"telegram": "https://t.me/joinchat/DY3QcxOB8rgrafLgIHyrcA", "whatsapp": "https://rebrand.ly/klimastreik-kiel", "email": "kiel@fridaysforfuture.de"}},
{"title": "L\u00fcbeck", "state": "active", "location": {"lat": 53.866444, "lng": 10.684738}, "contact": {"whatsapp": "https://chat.whatsapp.com/H7eFifKV5EOGVG9Wa9vVAD", "email": "fridaysforfutureluebeck@web.de"}},
{"title": "Mielkendorf", "state": "active", "location": {"lat": 54.2833385, "lng": 10.0377821}, "contact": {"whatsapp": "https://chat.whatsapp.com/FnRoH6UXzJnDCDxmfGA9L9"}},
{"title": "M\u00f6lln", "state": "active", "location": {"lat": 53.62892, "lng": 10.6880174}, "contact": {"whatsapp": "https://chat.whatsapp.com/Cng16SBxM9D8J24BYVLPF6"}},
{"title": "Neum\u00fcnster", "state": "active", "location": {"lat": 54.0715956, "lng": 9.9865296}, "contact": {"whatsapp": "https://chat.whatsapp.com/B6jTLBAe8XWLdkjd4Svtxh"}},
{"title": "Nieb\u00fcll", "state": "active", "location": {"lat": 54.7868097, "lng": 8.8258359}, "contact": {"whatsapp": "https://chat.whatsapp.com/HbuvdPQybOJJiigFfykvCj"}},
{"title": "Norderstedt", "state": "active", "location": {"lat": 53.7089898, "lng": 9.9891914}, "contact": {"whatsapp": "https://chat.whatsapp.com/JnM4im61b57Kebw1hftSSp"}},
{"title": "Osterburg", "state": "active", "location": {"lat": 52.7899044, "lng": 11.7526038}, "contact": {"whatsapp": "https://chat.whatsapp.com/KrRaBNc0h3sLpkr9TpmkRt"}},
{"title": "Pellworm", "state": "active", "location": {"lat": 54.52329785, "lng": 8.64088008516884}, "contact": {"whatsapp": "https://chat.whatsapp.com/Kd9K7qOi9mI0TnphaSxHeV"}},
{"title": "Pinneberg", "state": "active", "location": {"lat": 53.6615506, "lng": 9.7968682}, "contact": {"whatsapp": "https://chat.whatsapp.com/Ei466pVDEbg9q2MWMfiAkw", "email": "pinneberg@fridaysforfuture.de"}},
{"title": "Pl\u00f6n", "state": "active", "location": {"lat": 54.158082, "lng": 10.41771}, "contact": {"whatsapp": "https://chat.whatsapp.com/KjX0yewpsak9BM4fSOEDWg"}},
{"title": "Sankt Peter-Ording", "state": "active", "location": {"lat": 54.3172664, "lng": 8.6254937}, "contact": {"whatsapp": "https://chat.whatsapp.com/EMZ0IGbyiXQDuAk6FuSzpP"}},
{"title": "Schleswig", "state": "active", "location": {"lat": 54.51851, "lng": 9.5653284}, "contact": {"whatsapp": "https://chat.whatsapp.com/HtcygpueBSPIYthGBBocfs"}},
{"title": "Schwentinental", "state": "active", "location": {"lat": 54.2900155, "lng": 10.2254279}, "contact": {"whatsapp": "https://chat.whatsapp.com/D1oMSbdZcaO9ZeRT01FMwq"}},
{"title": "Steinfurt", "state": "active", "location": {"lat": 52.1294289, "lng": 7.3903454}, "contact": {"whatsapp": "https://chat.whatsapp.com/JdGgu6MRM6DE3A5DnqkZHB"}},
{"title": "Ratzeburg", "state": "active", "location": {"lat": 53.7011061, "lng": 10.774288}, "contact": {"whatsapp": "https://chat.whatsapp.com/EpoprnJcK2A5T7neCZuSnJ"}},
{"title": "Rendsburg", "state": "active", "location": {"lat": 54.3046701, "lng": 9.6645115}, "contact": {"whatsapp": "https://chat.whatsapp.com/KjEhCo2K1zA4t4de4skuG7"}},
{"title": "Wentorf", "state": "active", "location": {"lat": 53.67572985, "lng": 10.4707143483405}, "contact": {"whatsapp": "https://chat.whatsapp.com/Di4P0GmcpzGKOqWBukMcwn"}},
{"title": "Westerland", "state": "active", "location": {"lat": 54.9064856, "lng": 8.3071734}, "contact": {"whatsapp": "https://chat.whatsapp.com/DzaRxSCnauO4YYG2HrW4H8"}},
{"title": "Th\u00fcringen", "state": "active", "location": {"lat": 50.7333163, "lng": 11.0747905}, "contact": {"telegram": "https://t.me/F4FThueringenInfos", "whatsapp": "https://chat.whatsapp.com/DTcVEQPlSUoDSxmeR68hvK"}},
{"title": "Eisenach", "state": "active", "location": {"lat": 50.9929438, "lng": 10.2867611184022}, "contact": {"whatsapp": "https://chat.whatsapp.com/KdkKB5OXKGFKOVVSw8fAA0"}},
{"title": "Erfurt", "state": "active", "location": {"lat": 50.9777974, "lng": 11.0287364}, "contact": {"telegram": "https://t.me/f4ferfurt", "whatsapp": "https://chat.whatsapp.com/KeOCsnMJAOlENUH4qyZrko"}},
{"title": "Ilmenau", "state": "active", "location": {"lat": 50.6867695, "lng": 10.9142385}, "contact": {"whatsapp": "https://chat.whatsapp.com/H256QdDp4bVBaS4Kq2iX91"}},
{"title": "Jena", "state": "active", "location": {"lat": 50.9281717, "lng": 11.5879359}, "contact": {"telegram": "https://t.me/InfosF4FJena", "whatsapp": "https://chat.whatsapp.com/BnQ82aprtCVBcSeJnDePMY", "email": "jena@fridaysforfuture.de"}},
{"title": "Gera", "state": "active", "location": {"lat": 50.8772301, "lng": 12.0796208}, "contact": {"whatsapp": "https://chat.whatsapp.com/FZCsZwdyTMNJKDTlHXIsjI"}},
{"title": "Greiz", "state": "active", "location": {"lat": 50.6477963, "lng": 12.1734848}, "contact": {"whatsapp": "https://chat.whatsapp.com/DCJR1KL7xD10NfXVjMznX2"}},
{"title": "Gotha", "state": "active", "location": {"lat": 50.9462725, "lng": 10.6945265}, "contact": {"whatsapp": "https://chat.whatsapp.com/CLo1ED8THRU1CugxHzupwa"}},
{"title": "Meiningen", "state": "active", "location": {"lat": 50.57342505, "lng": 10.4283711376078}, "contact": {"whatsapp": "https://chat.whatsapp.com/EzNjJpsVHxw9qphDhx9AuA"}},
{"title": "M\u00fchlhausen", "state": "active", "location": {"lat": 51.2248415, "lng": 10.4768790340501}, "contact": {"whatsapp": "https://chat.whatsapp.com/CKewrdIWofwDuagzZ6X2g4"}},
{"title": "Nordhausen", "state": "active", "location": {"lat": 51.5051574, "lng": 10.7925317}, "contact": {"whatsapp": "https://chat.whatsapp.com/CxIpGhXu7TqKsWnGfrGgpL"}},
{"title": "Saalfeld-Rudolstadt", "state": "active", "location": {"lat": 50.7206063, "lng": 11.3401985}, "contact": {"telegram": "https://t.me/joinchat/AAAAAEdEnJ03ktY9Xy4NIA"}},
{"title": "S\u00f6mmerda", "state": "active", "location": {"lat": 51.1620125, "lng": 11.1178539}, "contact": {"whatsapp": "https://chat.whatsapp.com/EJIRvXx9i098yhAsZtrgXi"}},
{"title": "Weimar", "state": "active", "location": {"lat": 50.9802813, "lng": 11.3290855}, "contact": {"telegram": "https://t.me/joinchat/LRSQDRV2ptpkfTUWRM098A", "whatsapp": "https://chat.whatsapp.com/JTWTu0bmtEwAUS90gOrpBK"}}
]